{"dnq2u3y4bs26": {"city": "MountHolly_NC", "population": 10081, "lat": 35.2981943, "lon": -81.01590809999999}, "dr5x78czd8wx": {"city": "Lynbrook_NY", "population": 19852, "lat": 40.6548253, "lon": -73.67179689999999}, "dpe8r6hezk01": {"city": "Albion_MI", "population": 9103, "lat": 42.243097, "lon": -84.7530304}, "9qd4cfrb0gu4": {"city": "LosBanos_CA", "population": 34968, "lat": 37.0582786, "lon": -120.8499151}, "dngymxh7sd3v": {"city": "Bellevue_KY", "population": 5852, "lat": 39.1064488, "lon": -84.478831}, "dpcmj0us1t9b": {"city": "Allouez_WI", "population": 14718, "lat": 44.4774923, "lon": -88.0162144}, "dps7rppgm339": {"city": "Fenton_MI", "population": 11678, "lat": 42.7978061, "lon": -83.7049498}, "9vcukdcqd55p": {"city": "Graham_TX", "population": 8479, "lat": 33.1070597, "lon": -98.589502}, "dnk795k1hg3j": {"city": "Alcoa_TN", "population": 8606, "lat": 35.7895271, "lon": -83.9737935}, "drdjnsb2mhgr": {"city": "Oneida_NY", "population": 10723, "lat": 43.0925684, "lon": -75.65129309999999}, "dp7y6pmcypjv": {"city": "Hillsdale_MI", "population": 7762, "lat": 41.9200472, "lon": -84.6305101}, "9zvrqqj8njx5": {"city": "Shorewood_MN", "population": 7426, "lat": 44.90115309999999, "lon": -93.58470919999999}, "6sbuzhu0m6gv": {"city": "Total", "population": 200087175, "lat": -17.4201379, "lon": -66.1319716}, "9t9jg1sw6j1b": {"city": "Sahuarita_AZ", "population": 22913, "lat": 31.9575818, "lon": -110.955646}, "9vd8wjsd3skq": {"city": "Belton_TX", "population": 17876, "lat": 31.0560132, "lon": -97.46445299999999}, "dp6h828m0849": {"city": "Portage_IN", "population": 36976, "lat": 41.5758707, "lon": -87.1761455}, "9y6cfw4umc78": {"city": "Choctaw_OK", "population": 11354, "lat": 35.4975625, "lon": -97.2689212}, "dpqhf5h63hcz": {"city": "Willowick_OH", "population": 13727, "lat": 41.6331034, "lon": -81.46872739999999}, "dr9wmndtz5ue": {"city": "Fulton_NY", "population": 11219, "lat": 43.3228462, "lon": -76.4171585}, "dj7rhd79tumj": {"city": "Marianna_FL", "population": 6284, "lat": 30.7743596, "lon": -85.2268735}, "c2143b7ftn5c": {"city": "Sandy_OR", "population": 8823, "lat": 45.3973427, "lon": -122.2614761}, "9zvw65g9udtm": {"city": "PriorLake_MN", "population": 23836, "lat": 44.7132969, "lon": -93.4227274}, "dr1eepgjq01m": {"city": "Columbia_PA", "population": 10033, "lat": 40.0337085, "lon": -76.50440979999999}, "cbgj7837nzh1": {"city": "Selkirk_MB", "population": 9934, "lat": 50.1435276, "lon": -96.8754295}, "9xjm2cfkcnfr": {"city": "Berthoud_CO", "population": 5429, "lat": 40.3083174, "lon": -105.0810924}, "9z00h7zckuq0": {"city": "Colby_KS", "population": 4803, "lat": 39.3958369, "lon": -101.0523773}, "9v7d3s78tn8j": {"city": "Bellville_TX", "population": 4415, "lat": 29.9502253, "lon": -96.2571858}, "dr5rdq669yff": {"city": "JerseyCity_NJ", "population": 241114, "lat": 40.72815749999999, "lon": -74.0776417}, "dhwgzdfw23zm": {"city": "PembrokePark_FL", "population": 4744, "lat": 25.9878691, "lon": -80.1747687}, "dhz11rjpjxmk": {"city": "Jupiter_FL", "population": 48879, "lat": 26.9342246, "lon": -80.0942087}, "9zq334wrdqp9": {"city": "Ottumwa_IA", "population": 24342, "lat": 41.01602930000001, "lon": -92.40830220000001}, "9vrjhwbc7r07": {"city": "PortAllen_LA", "population": 4984, "lat": 30.4474878, "lon": -91.20732609999999}, "9zw9t50jx0rj": {"city": "Independence_IA", "population": 6119, "lat": 42.4685978, "lon": -91.8893386}, "dn0n05s86v8q": {"city": "Hernando_MS", "population": 12318, "lat": 34.823987, "lon": -89.9937018}, "djg1wb6y1mug": {"city": "Auburn_AL", "population": 56088, "lat": 32.6098566, "lon": -85.48078249999999}, "dhqtv32de1pw": {"city": "Islamorada,VillageofIslands_FL", "population": 6323, "lat": 24.9242943, "lon": -80.62783639999999}, "dp3t2wwn1v4r": {"city": "WillowSprings_IL", "population": 5898, "lat": 41.74086519999999, "lon": -87.86033429999999}, "dnj8pxhwwcv8": {"city": "Edgefield_SC", "population": 4418, "lat": 33.7895774, "lon": -81.9295582}, "dr5z6qg1de49": {"city": "Lindenhurst_NY", "population": 28620, "lat": 40.68676670000001, "lon": -73.3734547}, "dj7zg3y58tyb": {"city": "Bainbridge_GA", "population": 12337, "lat": 30.9037995, "lon": -84.57546990000002}, "cbjb01j7msu2": {"city": "Roseville_MN", "population": 32815, "lat": 45.0060767, "lon": -93.15661070000002}, "c20dqq8814bz": {"city": "Tigard_OR", "population": 48713, "lat": 45.4312294, "lon": -122.7714861}, "dn6pwyk38f3e": {"city": "Springfield_TN", "population": 17261, "lat": 36.5092118, "lon": -86.8849984}, "9v0e3466zkjq": {"city": "EaglePass_TX", "population": 26668, "lat": 28.7091433, "lon": -100.4995214}, "dnb5d18bd43v": {"city": "O'Fallon_IL", "population": 27540, "lat": 38.592323, "lon": -89.910991}, "9yu7p25nst0h": {"city": "Osawatomie_KS", "population": 4488, "lat": 38.4972372, "lon": -94.9505207}, "dn0fvs2jj29x": {"city": "Tupelo_MS", "population": 36233, "lat": 34.2576066, "lon": -88.7033859}, "dr49fg9np5x1": {"city": "Glassboro_NJ", "population": 19751, "lat": 39.70289229999999, "lon": -75.1118422}, "9vfehk37bzcx": {"city": "Azle_TX", "population": 11347, "lat": 32.8951262, "lon": -97.5458565}, "c8qfsynfupsz": {"city": "Dickinson_ND", "population": 16035, "lat": 46.8791756, "lon": -102.7896242}, "dpq44f1k46f4": {"city": "MunroeFalls_OH", "population": 5165, "lat": 41.1445006, "lon": -81.43983419999999}, "9vg17uybf875": {"city": "DeSoto_TX", "population": 47568, "lat": 32.5896998, "lon": -96.8570738}, "dp8t41ybe8ef": {"city": "CottageGrove_WI", "population": 6166, "lat": 43.0761082, "lon": -89.19955929999999}, "9ypzpfn66e0p": {"city": "Southaven_MS", "population": 44076, "lat": 34.9918587, "lon": -90.0022958}, "9qj4nd29kr10": {"city": "YuccaValley_CA", "population": 20375, "lat": 34.1141743, "lon": -116.432235}, "9q9vzecq354q": {"city": "Ceres_CA", "population": 42690, "lat": 37.5949316, "lon": -120.9577098}, "9yuwj0n1pck7": {"city": "Merriam_KS", "population": 10814, "lat": 39.0236165, "lon": -94.6935701}, "9qc1c7c7md89": {"city": "Napa_CA", "population": 74547, "lat": 38.2975381, "lon": -122.286865}, "9ynwfngt7m79": {"city": "Cabot_AR", "population": 23614, "lat": 34.974532, "lon": -92.0165336}, "9q3y95bzyrgf": {"city": "Greenfield_CA", "population": 15222, "lat": 36.3207998, "lon": -121.2438138}, "9v5ubhjhyc7k": {"city": "BayCity_TX", "population": 17891, "lat": 28.9827565, "lon": -95.969402}, "f21dqx4k940x": {"city": "Arnprior_ON", "population": 10099, "lat": 45.4347445, "lon": -76.3518469}, "dngh068003ju": {"city": "Scottsburg_IN", "population": 5912, "lat": 38.685614, "lon": -85.7702451}, "dp3t4x907umv": {"city": "ChicagoRidge_IL", "population": 13366, "lat": 41.7014217, "lon": -87.77921959999999}, "9q735xt0qgxd": {"city": "Bakersfield_CA", "population": 321078, "lat": 35.3732921, "lon": -119.0187125}, "9vg70zt9yvcc": {"city": "Garland_TX", "population": 218577, "lat": 32.912624, "lon": -96.63888329999999}, "9xj60zjn79un": {"city": "WheatRidge_CO", "population": 30894, "lat": 39.766098, "lon": -105.0772063}, "c23nkq0ywmv6": {"city": "Newcastle_WA", "population": 9885, "lat": 47.5389889, "lon": -122.1556769}, "9q55yx1frmce": {"city": "Ojai_CA", "population": 7775, "lat": 34.4480495, "lon": -119.242889}, "dpy8n9pyf3h8": {"city": "Elmira_ON", "population": 9931, "lat": 43.60040739999999, "lon": -80.5629846}, "9wxbdtzkud23": {"city": "Guymon_OK", "population": 10702, "lat": 36.6828041, "lon": -101.4815493}, "9zvwn0nxr0us": {"city": "Lakeville_MN", "population": 54542, "lat": 44.6496868, "lon": -93.24271999999999}, "9xje95h4fe8j": {"city": "Lochbuie_CO", "population": 4800, "lat": 40.00720560000001, "lon": -104.7160792}, "dpmezftny0me": {"city": "Westlake_OH", "population": 30546, "lat": 41.4553232, "lon": -81.9179173}, "9q97pxmuz5pg": {"city": "MorganHill_CA", "population": 38096, "lat": 37.1305012, "lon": -121.6543901}, "9xnm1bzkvt51": {"city": "Brush_CO", "population": 5332, "lat": 40.2588686, "lon": -103.6238367}, "dpbus9mws1yj": {"city": "NewLondon_WI", "population": 6745, "lat": 44.3927582, "lon": -88.7398256}, "9yzuq4vkwgjk": {"city": "PontoonBeach_IL", "population": 6081, "lat": 38.7317158, "lon": -90.0803839}, "dppj6tmj0ebg": {"city": "BethelPark_PA", "population": 31562, "lat": 40.3275697, "lon": -80.0394977}, "dnqxtsrxf4g3": {"city": "MountAiry_NC", "population": 9501, "lat": 36.4993007, "lon": -80.6072858}, "9xjmkxj78shp": {"city": "Johnstown_CO", "population": 9309, "lat": 40.3369272, "lon": -104.9121967}, "dp4gb1efk1c8": {"city": "Westfield_IN", "population": 21171, "lat": 40.0428151, "lon": -86.1274888}, "c2b2q7dhwys4": {"city": "Vancouver_BC", "population": 2135201, "lat": 49.2827291, "lon": -123.1207375}, "dhxpftx78082": {"city": "PalmBeach_FL", "population": 9535, "lat": 26.7056206, "lon": -80.0364297}, "dpc2yh1n47ju": {"city": "Plymouth_WI", "population": 8241, "lat": 43.7486054, "lon": -87.9770379}, "dpjrbs59m3xz": {"city": "Ontario_OH", "population": 5204, "lat": 40.7595012, "lon": -82.5901725}, "9y6sp591cw95": {"city": "Guthrie_OK", "population": 11043, "lat": 35.878937, "lon": -97.42531849999999}, "djfr2x8u7f4c": {"city": "Gardendale_AL", "population": 13665, "lat": 33.6601033, "lon": -86.8127702}, "dp3skryudnxx": {"city": "HazelCrest_IL", "population": 14075, "lat": 41.571701, "lon": -87.6944915}, "djv3qqnmsc5e": {"city": "Swainsboro_GA", "population": 7667, "lat": 32.5973856, "lon": -82.33373759999999}, "9rfh42e12f73": {"city": "Prineville_OR", "population": 10085, "lat": 44.2998485, "lon": -120.8344664}, "9vrwu3t77bev": {"city": "AmiteCity_LA", "population": 4318, "lat": 30.7265747, "lon": -90.50898149999999}, "9rtpew3543yz": {"city": "Nampa_ID", "population": 80362, "lat": 43.5407172, "lon": -116.5634624}, "dpebr6su40fb": {"city": "Jackson_MI", "population": 33518, "lat": 42.245869, "lon": -84.40134619999999}, "dp9kvkfv686q": {"city": "Wauwatosa_WI", "population": 45004, "lat": 43.0494572, "lon": -88.0075875}, "9z0kwjx4w6rt": {"city": "McCook_NE", "population": 7436, "lat": 40.1966701, "lon": -100.6248741}, "dnrr8fe8v05d": {"city": "Eden_NC", "population": 15469, "lat": 36.4884715, "lon": -79.7667026}, "9vms50ksvmsn": {"city": "Sulphur_LA", "population": 19450, "lat": 30.2365943, "lon": -93.37737829999999}, "dp9910165cw4": {"city": "Waukegan_IL", "population": 90788, "lat": 42.3636331, "lon": -87.84479379999999}, "9muxekhm6z5u": {"city": "CanyonLake_CA", "population": 11243, "lat": 33.6850215, "lon": -117.2730931}, "c28zc85cjkbq": {"city": "WalnutGrove_BC", "population": 27969, "lat": 49.1750029, "lon": -122.624019}, "c3rmk4c1ytn3": {"city": "Wetaskiwin_AB", "population": 12525, "lat": 52.9695353, "lon": -113.3772454}, "dnbmm257fumg": {"city": "Greenville_IL", "population": 7379, "lat": 38.8922687, "lon": -89.41313559999999}, "dpe2v8q48f9d": {"city": "BattleCreek_MI", "population": 52053, "lat": 42.3211522, "lon": -85.17971419999999}, "9yfd395n6grc": {"city": "McPherson_KS", "population": 13396, "lat": 38.3708415, "lon": -97.66420869999999}, "9qqjumvcxu3w": {"city": "NorthLasVegas_NV", "population": 217253, "lat": 36.1988592, "lon": -115.1175013}, "c3p43vk6sy4d": {"city": "Chestermere_AB", "population": 14363, "lat": 51.0498087, "lon": -113.8233018}, "dnh285d94pms": {"city": "Snellville_GA", "population": 20112, "lat": 33.857328, "lon": -84.0199108}, "drd3cqt6ne3d": {"city": "Norwich_NY", "population": 6992, "lat": 42.531184, "lon": -75.5235149}, "cbts6xc1p2pj": {"city": "InternationalFalls_MN", "population": 5906, "lat": 48.6023149, "lon": -93.4040679}, "cbj9m47r41yx": {"city": "Andover_MN", "population": 30442, "lat": 45.2332984, "lon": -93.29134049999999}, "djfrm0m3dvts": {"city": "Trussville_AL", "population": 18985, "lat": 33.6198251, "lon": -86.60887559999999}, "9zs51wm6xwtr": {"city": "Cherokee_IA", "population": 4697, "lat": 42.7496413, "lon": -95.55154309999999}, "9vv2gp6774zw": {"city": "BossierCity_LA", "population": 62384, "lat": 32.5159852, "lon": -93.7321228}, "dnjfyxrpfj2v": {"city": "Newberry_SC", "population": 10907, "lat": 34.2745833, "lon": -81.6187178}, "dnbtssecyy6v": {"city": "Vandalia_IL", "population": 6321, "lat": 38.9606009, "lon": -89.0936778}, "dpkzepr2q1db": {"city": "Trenton_MI", "population": 17965, "lat": 42.1394858, "lon": -83.1782587}, "9zvqzepe8rbv": {"city": "Shakopee_MN", "population": 33455, "lat": 44.7973962, "lon": -93.5272861}, "9ykyy7pe5muc": {"city": "Centerton_AR", "population": 8593, "lat": 36.359799, "lon": -94.2852085}, "9vg79gjkrp64": {"city": "Sachse_TX", "population": 18688, "lat": 32.9762327, "lon": -96.5952703}, "9zy1rreuvt4n": {"city": "Stewartville_MN", "population": 5553, "lat": 43.8555186, "lon": -92.4885079}, "9munzf0vy85k": {"city": "LagunaBeach_CA", "population": 23995, "lat": 33.5422475, "lon": -117.7831104}, "dnrhe3tchfz7": {"city": "HighPoint_NC", "population": 101835, "lat": 35.9556923, "lon": -80.0053176}, "9vddzkhycsgd": {"city": "McGregor_TX", "population": 4891, "lat": 31.4440557, "lon": -97.4091792}, "9zvxveyqrsz7": {"city": "Minneapolis_MN", "population": 382605, "lat": 44.977753, "lon": -93.2650108}, "dp4b9g0xjqr3": {"city": "Franklin_IN", "population": 23258, "lat": 39.4806055, "lon": -86.0549863}, "dp3pgu2wfgy8": {"city": "Huntley_IL", "population": 22923, "lat": 42.1680796, "lon": -88.4281415}, "drk51nc7pgy2": {"city": "Ansonia_CT", "population": 18503, "lat": 41.34620779999999, "lon": -73.07899689999999}, "c2qftyn0r42e": {"city": "Missoula_MT", "population": 68202, "lat": 46.87871759999999, "lon": -113.996586}, "dq2cy3eepxs4": {"city": "Ayden_NC", "population": 5005, "lat": 35.4726626, "lon": -77.4155203}, "9ymnbjrpprqk": {"city": "Bentonville_AR", "population": 35526, "lat": 36.3728538, "lon": -94.2088172}, "djd9vnydv00d": {"city": "Opp_AL", "population": 6582, "lat": 31.2826685, "lon": -86.2555067}, "dp9mqux1r02x": {"city": "Glendale_WI", "population": 12992, "lat": 43.135288, "lon": -87.9356423}, "drtee1u9rv3n": {"city": "Newburyport_MA", "population": 17542, "lat": 42.8125913, "lon": -70.87727509999999}, "dhxj3x64xmwd": {"city": "LighthousePoint_FL", "population": 11118, "lat": 26.275636, "lon": -80.08726539999999}, "9tzpn66sk9s4": {"city": "Levelland_TX", "population": 12450, "lat": 33.5873164, "lon": -102.37796}, "dnjmygr8g1nv": {"city": "Mauldin_SC", "population": 21784, "lat": 34.77873, "lon": -82.310119}, "dnw64y7b6fyd": {"city": "Wytheville_VA", "population": 8282, "lat": 36.9484528, "lon": -81.084811}, "9r1n1537zhkx": {"city": "Anderson_CA", "population": 10538, "lat": 40.448208, "lon": -122.2977815}, "9w5rcy2gxhhs": {"city": "Grants_NM", "population": 8871, "lat": 35.14726, "lon": -107.8514466}, "drbgppe68nbq": {"city": "Belleville_ON", "population": 63985, "lat": 44.1627589, "lon": -77.3832315}, "9w46118ruh9x": {"city": "Eagar_AZ", "population": 4488, "lat": 34.1111581, "lon": -109.291475}, "9zw3s570b2nm": {"city": "Evansdale_IA", "population": 5056, "lat": 42.4691543, "lon": -92.281017}, "f84xumtm5b6t": {"city": "Summerside_PEI", "population": 14751, "lat": 46.39337769999999, "lon": -63.79023309999999}, "drykh4s0h512": {"city": "Augusta_ME", "population": 18282, "lat": 44.3106241, "lon": -69.7794897}, "dr5r37x87mv9": {"city": "Bayonne_NJ", "population": 57448, "lat": 40.6687141, "lon": -74.1143091}, "dhwfx1y0ev5m": {"city": "Miami_FL", "population": 413201, "lat": 25.7616798, "lon": -80.1917902}, "dpscemrerknj": {"city": "HuntingtonWoods_MI", "population": 5811, "lat": 42.4805913, "lon": -83.1668713}, "9vffg921dk72": {"city": "NorthRichlandHills_TX", "population": 65078, "lat": 32.8342952, "lon": -97.2289029}, "dp3q1uenn1dj": {"city": "Winfield_IL", "population": 9984, "lat": 41.8616956, "lon": -88.1609031}, "9q95zr9t99vd": {"city": "Saratoga_CA", "population": 30445, "lat": 37.2638324, "lon": -122.0230146}, "dp3s946egpz2": {"city": "OrlandHills_IL", "population": 7195, "lat": 41.5853107, "lon": -87.8431078}, "dhwu6rqttky8": {"city": "Weston_FL", "population": 63628, "lat": 26.1003654, "lon": -80.3997748}, "9ykct51dn407": {"city": "VanBuren_AR", "population": 22543, "lat": 35.436756, "lon": -94.34826799999999}, "9x2641prfjsf": {"city": "Clinton_UT", "population": 19855, "lat": 41.139666, "lon": -112.0504983}, "dre7sukf5pdz": {"city": "Scotia_NY", "population": 8033, "lat": 42.8264652, "lon": -73.9642915}, "dngzjvvfhgbx": {"city": "Wyoming_OH", "population": 8355, "lat": 39.2311691, "lon": -84.4657758}, "dnwhp8z8wc8u": {"city": "Bluefield_WV", "population": 11093, "lat": 37.2698395, "lon": -81.2223195}, "dnnbgz10u56q": {"city": "Sumter_SC", "population": 38625, "lat": 33.9204354, "lon": -80.3414693}, "9y1bytz39trr": {"city": "WichitaFalls_TX", "population": 101202, "lat": 33.9137085, "lon": -98.4933873}, "drgvne7v3vpm": {"city": "Winooski_VT", "population": 6429, "lat": 44.491438, "lon": -73.1856832}, "f24ewwttzhhj": {"city": "Montebello_CA", "population": 61906, "lat": 45.6519493, "lon": -74.9408715}, "dnzftr92vp45": {"city": "Harrisonburg_VA", "population": 44015, "lat": 38.4495688, "lon": -78.8689155}, "dr5m4ztwx22b": {"city": "Eatontown_NJ", "population": 14195, "lat": 40.2962222, "lon": -74.0509725}, "dpnzu69mdm1w": {"city": "BeaverFalls_PA", "population": 9055, "lat": 40.7520097, "lon": -80.31922949999999}, "9t9479k4utc3": {"city": "Nogales_AZ", "population": 19573, "lat": 31.3403775, "lon": -110.9342532}, "dqbcvkfunwgn": {"city": "Fredericksburg_VA", "population": 22818, "lat": 38.3031837, "lon": -77.4605399}, "dr7034egyeu8": {"city": "MorrisPlains_NJ", "population": 6005, "lat": 40.83959220000001, "lon": -74.4818698}, "dpxpw6703wfm": {"city": "Milton_ON", "population": 75573, "lat": 43.5182991, "lon": -79.8774042}, "dp0wqzqurfzb": {"city": "Normal_IL", "population": 52056, "lat": 40.5142026, "lon": -88.9906312}, "dhxj28qytee9": {"city": "PompanoBeach_FL", "population": 101943, "lat": 26.2378597, "lon": -80.1247667}, "dr5m7p0dcbhw": {"city": "LittleSilver_NJ", "population": 6119, "lat": 40.3367768, "lon": -74.0470837}, "djzz4vv91tj1": {"city": "SurfsideBeach_SC", "population": 4783, "lat": 33.6060031, "lon": -78.97308869999999}, "dp89y43j14ry": {"city": "Beloit_WI", "population": 36160, "lat": 42.5083482, "lon": -89.03177649999999}, "f8jpj6jkubrx": {"city": "SydneyMines_NS", "population": 14135, "lat": 46.242273, "lon": -60.23061339999999}, "dp3t9bqgt655": {"city": "Bridgeview_IL", "population": 14991, "lat": 41.7500323, "lon": -87.80422159999999}, "9vk28zgxs1rx": {"city": "SouthHouston_TX", "population": 16351, "lat": 29.663008, "lon": -95.2354902}, "dn250eyjjuyt": {"city": "Osceola_AR", "population": 7914, "lat": 35.7050778, "lon": -89.96953200000002}, "9yqymxb4728e": {"city": "CherokeeVillage_AR", "population": 4778, "lat": 36.2978443, "lon": -91.515973}, "dp4fdkqkfnuj": {"city": "Lawrence_IN", "population": 43247, "lat": 39.8386516, "lon": -86.0252612}, "dp9ebxhh0tcj": {"city": "OakCreek_WI", "population": 33482, "lat": 42.8858503, "lon": -87.8631362}, "9zmzjyf7vuf5": {"city": "Marshalltown_IA", "population": 25850, "lat": 42.0494674, "lon": -92.90803749999999}, "dhyy0zg46gtf": {"city": "Sebastian_FL", "population": 20265, "lat": 27.816415, "lon": -80.4706078}, "dr1ez8sj88uw": {"city": "Lancaster_PA", "population": 54626, "lat": 40.0378755, "lon": -76.3055144}, "9vft565gwpkw": {"city": "Decatur_TX", "population": 6432, "lat": 33.2342834, "lon": -97.5861393}, "9tbk4613ktwm": {"city": "Maricopa_AZ", "population": 45571, "lat": 33.0581063, "lon": -112.0476423}, "dr5mu7308rq9": {"city": "Highlands_NJ", "population": 5272, "lat": 40.40372, "lon": -73.991527}, "drkk6y1qj4jv": {"city": "Middletown_CT", "population": 48030, "lat": 41.5623209, "lon": -72.6506488}, "9vqkvwdypvf9": {"city": "ChurchPoint_LA", "population": 4661, "lat": 30.4029776, "lon": -92.2151255}, "9ydy3hwrtqu6": {"city": "Wichita_KS", "population": 366046, "lat": 37.68717609999999, "lon": -97.33005299999999}, "dp3nyug9bm1e": {"city": "SouthElgin_IL", "population": 21131, "lat": 41.9941938, "lon": -88.29229959999999}, "9udj4s3wwx5q": {"city": "Mission_TX", "population": 67119, "lat": 26.2159066, "lon": -98.32529319999999}, "f28kq8bpwrg4": {"city": "Amos_QC", "population": 9400, "lat": 48.5650196, "lon": -78.1125205}, "9q5bkqvguc1p": {"city": "Carson_CA", "population": 92366, "lat": 33.8316745, "lon": -118.281693}, "c2u9dcus82b6": {"city": "Nelson_BC", "population": 10520, "lat": 49.4928119, "lon": -117.2948343}, "dp3g64pr1tdz": {"city": "CedarLake_IN", "population": 10981, "lat": 41.3647578, "lon": -87.4411473}, "dph027cke5e8": {"city": "Monroe_OH", "population": 12178, "lat": 39.44033599999999, "lon": -84.3621634}, "dnjt3dfynh5c": {"city": "FountainInn_SC", "population": 7760, "lat": 34.6890095, "lon": -82.19566789999999}, "dnh1mnp9pgfx": {"city": "Duluth_GA", "population": 26125, "lat": 34.0028786, "lon": -84.1446376}, "dp8qncjbs22e": {"city": "DeForest_WI", "population": 8835, "lat": 43.2477685, "lon": -89.343727}, "9z7dxtb2ktzu": {"city": "Omaha_NE", "population": 438646, "lat": 41.2523634, "lon": -95.99798829999999}, "9yutyd1yyn8f": {"city": "PrairieVillage_KS", "population": 21479, "lat": 38.9916726, "lon": -94.6335684}, "dp6hqd2umev0": {"city": "Westville_IN", "population": 5177, "lat": 41.54142969999999, "lon": -86.9005825}, "9x0rr7ec0st4": {"city": "Holladay_UT", "population": 25676, "lat": 40.6688363, "lon": -111.8246557}, "dp3skdtukv9b": {"city": "Flossmoor_IL", "population": 9309, "lat": 41.5428123, "lon": -87.6847684}, "dp2cftb46m0m": {"city": "Streator_IL", "population": 13780, "lat": 41.12086679999999, "lon": -88.835352}, "dj6kzszxnjm6": {"city": "Destin_FL", "population": 12563, "lat": 30.3935337, "lon": -86.4957833}, "9tmb0vqeb9nb": {"city": "Presidio_TX", "population": 4695, "lat": 29.5607383, "lon": -104.3721465}, "dr2ndmcqm9te": {"city": "Bradford_PA", "population": 8391, "lat": 41.9564953, "lon": -78.649163}, "dpymw1sckjry": {"city": "OwenSound_ON", "population": 22134, "lat": 44.5690305, "lon": -80.9405602}, "dpwhx3890u26": {"city": "London_ON", "population": 366191, "lat": 42.9869502, "lon": -81.243177}, "9pr8nefc29r5": {"city": "Eureka_CA", "population": 25300, "lat": 40.8020712, "lon": -124.1636729}, "dpr5wk833vhs": {"city": "Sugarcreek_PA", "population": 4969, "lat": 41.4214458, "lon": -79.8811671}, "dnuncgdsys1p": {"city": "Milford_OH", "population": 6332, "lat": 39.1753377, "lon": -84.29438209999999}, "dpnzj9ffesbg": {"city": "Aliquippa_PA", "population": 10631, "lat": 40.615537, "lon": -80.26218519999999}, "9vw60w56hx7s": {"city": "Pineville_LA", "population": 14776, "lat": 31.3224044, "lon": -92.4343035}, "dr726q0048ht": {"city": "HasbrouckHeights_NJ", "population": 11410, "lat": 40.85815530000001, "lon": -74.0806971}, "dj6qvyxs5dcf": {"city": "Crestview_FL", "population": 19444, "lat": 30.7541808, "lon": -86.5727995}, "dp6tj6cnqgwf": {"city": "SouthBend_IN", "population": 103807, "lat": 41.6763545, "lon": -86.25198979999999}, "9v67js0yxre7": {"city": "Buda_TX", "population": 6788, "lat": 30.0817231, "lon": -97.8428927}, "9wkzjesp95pb": {"city": "Taos_NM", "population": 5551, "lat": 36.4072485, "lon": -105.5730665}, "dppjkp34eee9": {"city": "Baldwin_PA", "population": 18562, "lat": 40.3381252, "lon": -79.9789404}, "dp3t41kw4wsj": {"city": "PalosHeights_IL", "population": 12469, "lat": 41.6680885, "lon": -87.7964416}, "dphh7h0s2b05": {"city": "Piqua_OH", "population": 20582, "lat": 40.1447732, "lon": -84.24244490000001}, "c23h3jv4bbn6": {"city": "Puyallup_WA", "population": 36330, "lat": 47.1853785, "lon": -122.2928974}, "9q5cnwk49v0g": {"city": "Cudahy_CA", "population": 24334, "lat": 33.9605701, "lon": -118.1853486}, "9qqjp8bc7wq6": {"city": "Henderson_NV", "population": 252064, "lat": 36.0395247, "lon": -114.9817213}, "drsbqjejmq3s": {"city": "Worcester_MA", "population": 175011, "lat": 42.2625932, "lon": -71.8022934}, "c24ry69zsuu4": {"city": "Toppenish_WA", "population": 9166, "lat": 46.3773509, "lon": -120.3086667}, "c2krh17jyphx": {"city": "AirwayHeights_WA", "population": 5289, "lat": 47.644611, "lon": -117.5932728}, "9vgku0k20tuq": {"city": "Princeton_TX", "population": 6117, "lat": 33.1801161, "lon": -96.49804239999999}, "dpmur8ggzhnr": {"city": "EastCleveland_OH", "population": 24507, "lat": 41.5331066, "lon": -81.57901369999999}, "c2qz64kcn2fq": {"city": "Polson_MT", "population": 5228, "lat": 47.69320039999999, "lon": -114.1631275}, "9qh0nnvupmqk": {"city": "Orange_CA", "population": 136392, "lat": 33.7877944, "lon": -117.8531119}, "9tbmu4zp6yfe": {"city": "Guadalupe_AZ", "population": 5948, "lat": 33.3708798, "lon": -111.9629216}, "dnuur6fuy00x": {"city": "Portsmouth_OH", "population": 20297, "lat": 38.7317431, "lon": -82.9976742}, "dp9kzdury8ym": {"city": "Milwaukee_WI", "population": 604477, "lat": 43.0389025, "lon": -87.9064736}, "9wy25fcwtyfv": {"city": "LaJunta_CO", "population": 7046, "lat": 37.9850091, "lon": -103.5438321}, "9zrsjgh2p47k": {"city": "EastMoline_IL", "population": 20892, "lat": 41.5008673, "lon": -90.4442979}, "9vzcx0vnrsk7": {"city": "Canton_MS", "population": 12520, "lat": 32.6126381, "lon": -90.0367512}, "9rbrhufjk765": {"city": "Independence_OR", "population": 9375, "lat": 44.8512305, "lon": -123.1867655}, "9yps6tf6s4b0": {"city": "Helena-WestHelena_AR", "population": 12190, "lat": 34.5291, "lon": -90.58999999999999}, "dnyvy68u6q04": {"city": "Buckhannon_WV", "population": 5505, "lat": 38.9939872, "lon": -80.2320276}, "dn7uhgyv2njg": {"city": "Kingston_TN", "population": 5607, "lat": 35.8809084, "lon": -84.5085447}, "dn86nc0zerus": {"city": "Charleston_MO", "population": 5111, "lat": 36.9208854, "lon": -89.35063099999999}, "dp3xe989m7xj": {"city": "Winnetka_IL", "population": 12371, "lat": 42.10808340000001, "lon": -87.735895}, "bdvkkbmvn2ew": {"city": "Anchorage_AK", "population": 279243, "lat": 61.2180556, "lon": -149.9002778}, "c283w8xgx5hq": {"city": "Sequim_WA", "population": 5809, "lat": 48.0795365, "lon": -123.1018437}, "dn72mqtbn8q9": {"city": "Soddy-Daisy_TN", "population": 12511, "lat": 35.2359025, "lon": -85.1907904}, "9w1fb5y9pp60": {"city": "ShowLow_AZ", "population": 12324, "lat": 34.2542084, "lon": -110.0298327}, "f05gttz8ccqs": {"city": "Cheboygan_MI", "population": 4942, "lat": 45.64695630000001, "lon": -84.4744795}, "dp58z842uypg": {"city": "Oxford_OH", "population": 22887, "lat": 39.5069974, "lon": -84.74523099999999}, "dn55cqku66qy": {"city": "FortPayne_AL", "population": 14061, "lat": 34.4442547, "lon": -85.7196893}, "9yrm4npcsttr": {"city": "WalnutRidge_AR", "population": 4664, "lat": 36.0684035, "lon": -90.9559534}, "9zp3mdmsr1u3": {"city": "Pittsfield_IL", "population": 4453, "lat": 39.6078254, "lon": -90.8051289}, "cb262hw3n6pt": {"city": "Mandan_ND", "population": 18091, "lat": 46.8266603, "lon": -100.8895761}, "drmjzgvyt0y1": {"city": "EastProvidence_RI", "population": 48480, "lat": 41.8137116, "lon": -71.3700545}, "dn5k1v58m9s9": {"city": "Summerville_GA", "population": 5010, "lat": 34.480642, "lon": -85.3477343}, "9zmv4rveqtbh": {"city": "Newton_IA", "population": 15042, "lat": 41.7033177, "lon": -93.05735330000002}, "dng4phhcz5st": {"city": "LaGrange_KY", "population": 6286, "lat": 38.3426052, "lon": -85.46680309999999}, "9zvxg29vknwc": {"city": "St.LouisPark_MN", "population": 45465, "lat": 44.9597376, "lon": -93.3702186}, "djwx62v9xue4": {"city": "HiltonHeadIsland_SC", "population": 33913, "lat": 32.216316, "lon": -80.752608}, "dp3pxeut6ugj": {"city": "Carpentersville_IL", "population": 37741, "lat": 42.1211364, "lon": -88.2578582}, "dqchyb0ns9ek": {"city": "Alexandria_VA", "population": 143885, "lat": 38.8048355, "lon": -77.0469214}, "9r2v3msq3tyv": {"city": "Yreka_CA", "population": 7368, "lat": 41.7354186, "lon": -122.6344708}, "dq9cxhfebekh": {"city": "VirginiaBeach_VA", "population": 433746, "lat": 36.8529263, "lon": -75.97798499999999}, "9rb9be022f2e": {"city": "Creswell_OR", "population": 5058, "lat": 43.9179023, "lon": -123.0245261}, "cb7rc954ypbc": {"city": "Crookston_MN", "population": 7790, "lat": 47.7745617, "lon": -96.6093911}, "dpznw42kbfrs": {"city": "Midland_ON", "population": 31428, "lat": 44.74951600000001, "lon": -79.89219229999999}, "dnunbq2r6zch": {"city": "Madeira_OH", "population": 8558, "lat": 39.1908926, "lon": -84.36355069999999}, "dhxp4rgyvwbb": {"city": "Lantana_FL", "population": 10071, "lat": 26.5867358, "lon": -80.05198589999999}, "9v3snp7tgf91": {"city": "Fredericksburg_TX", "population": 11098, "lat": 30.2752011, "lon": -98.8719843}, "dpqjr5wwybrk": {"city": "Painesville_OH", "population": 18474, "lat": 41.7244885, "lon": -81.245657}, "dpmgcqwgfrvy": {"city": "RockyRiver_OH", "population": 18900, "lat": 41.4768217, "lon": -81.8497567}, "9x8jew8fsr36": {"city": "Blackfoot_ID", "population": 11012, "lat": 43.19047090000001, "lon": -112.3449773}, "dngpyc0u0pn0": {"city": "Greensburg_IN", "population": 10730, "lat": 39.3372722, "lon": -85.483581}, "dj3r7fszz6dp": {"city": "Saraland_AL", "population": 12946, "lat": 30.820742, "lon": -88.07055559999999}, "9ruf6qy1q00r": {"city": "Ontario_OR", "population": 10991, "lat": 44.0265525, "lon": -116.9629378}, "9terefkdc9mc": {"city": "Deming_NM", "population": 15480, "lat": 32.2686981, "lon": -107.7586404}, "9mupxebx0wvu": {"city": "Irvine_CA", "population": 207500, "lat": 33.6839473, "lon": -117.7946942}, "9qh07181cje7": {"city": "Stanton_CA", "population": 37589, "lat": 33.8025155, "lon": -117.9931165}, "9x264v0zv22u": {"city": "Roy_UT", "population": 35672, "lat": 41.1616108, "lon": -112.0263313}, "dpmdcj74shp4": {"city": "Oberlin_OH", "population": 8381, "lat": 41.2939386, "lon": -82.21737859999999}, "dp01jz2w7r2x": {"city": "Auburn_IL", "population": 4362, "lat": 39.5917197, "lon": -89.74648739999999}, "9zf29m0cu5gz": {"city": "Mitchell_SD", "population": 14752, "lat": 43.7094283, "lon": -98.0297992}, "dnpecc7dvyp0": {"city": "Dillon_SC", "population": 6353, "lat": 34.4165505, "lon": -79.3711579}, "dnb0yu15jmgt": {"city": "Sparta_IL", "population": 4314, "lat": 38.1231053, "lon": -89.70176579999999}, "dnu9jrnjv818": {"city": "Morehead_KY", "population": 7707, "lat": 38.1839705, "lon": -83.4326841}, "dphgqq5e4s24": {"city": "GrandviewHeights_OH", "population": 6306, "lat": 39.9797863, "lon": -83.0407403}, "9qhs8r95nzxc": {"city": "Adelanto_CA", "population": 28553, "lat": 34.5827699, "lon": -117.409215}, "dr4ry291ys6e": {"city": "Nazareth_PA", "population": 6020, "lat": 40.740375, "lon": -75.3096237}, "9muqddb9xb70": {"city": "SanJuanCapistrano_CA", "population": 34793, "lat": 33.5016932, "lon": -117.6625509}, "djsmv6z8btxh": {"city": "Cordele_GA", "population": 11518, "lat": 31.9635074, "lon": -83.7823938}, "9v3c78cfwwpb": {"city": "FairOaksRanch_TX", "population": 6367, "lat": 29.7555579, "lon": -98.63256109999999}, "dpbyz8kgkb6f": {"city": "Shawano_WI", "population": 8666, "lat": 44.7822064, "lon": -88.60899169999999}, "dp08hftc5svq": {"city": "Pana_IL", "population": 5718, "lat": 39.3889311, "lon": -89.0800809}, "drttjbbr1j05": {"city": "Portsmouth_NH", "population": 20443, "lat": 43.0717552, "lon": -70.7625532}, "9zpjb5rjjeen": {"city": "Keokuk_IA", "population": 10387, "lat": 40.4044731, "lon": -91.3963966}, "9xj3673hqdq2": {"city": "Littleton_CO", "population": 40777, "lat": 39.613321, "lon": -105.0166498}, "9zeswjhrnhv0": {"city": "OrangeCity_IA", "population": 5891, "lat": 43.0072087, "lon": -96.0583523}, "9yxxerew45sb": {"city": "BonneTerre_MO", "population": 6854, "lat": 37.9231069, "lon": -90.5554039}, "cbjbgvh7f57n": {"city": "Hugo_MN", "population": 13139, "lat": 45.159964, "lon": -92.99334119999999}, "9x34fbxj1hv7": {"city": "Evanston_WY", "population": 11781, "lat": 41.2682794, "lon": -110.9632373}, "dp3mj6rne1vj": {"city": "Lemont_IL", "population": 16176, "lat": 41.673642, "lon": -88.0017261}, "dnvf995n807w": {"city": "Nitro_WV", "population": 6784, "lat": 38.4148146, "lon": -81.8440197}, "dnu23zfqurgc": {"city": "MountSterling_KY", "population": 6921, "lat": 38.0564679, "lon": -83.9432556}, "dph12jsp4v0k": {"city": "Germantown_OH", "population": 5018, "lat": 39.6261682, "lon": -84.3693882}, "c25p7v7wje6m": {"city": "WestRichland_WA", "population": 10857, "lat": 46.3043015, "lon": -119.3614092}, "dn2cwgt289z1": {"city": "Henderson_TN", "population": 6418, "lat": 35.4392435, "lon": -88.641441}, "9vuchseexg8z": {"city": "Marshall_TX", "population": 23798, "lat": 32.5448714, "lon": -94.36741839999999}, "dp8pmcdjqrqd": {"city": "Baraboo_WI", "population": 11244, "lat": 43.4710944, "lon": -89.74429060000001}, "9qbw4gx3ttdb": {"city": "Lakeport_CA", "population": 5142, "lat": 39.0429506, "lon": -122.9158293}, "dp9mx8xfswym": {"city": "FoxPoint_WI", "population": 6816, "lat": 43.1575097, "lon": -87.90175289999999}, "dnfn06pcbxfs": {"city": "Linton_IN", "population": 5696, "lat": 39.0347666, "lon": -87.1658458}, "dju3xs5h67fh": {"city": "Centerville_GA", "population": 7240, "lat": 32.630145, "lon": -83.6896285}, "dpjrf7f4fdx4": {"city": "Mansfield_OH", "population": 49579, "lat": 40.75839, "lon": -82.5154471}, "djs1etrz6p11": {"city": "Camilla_GA", "population": 5660, "lat": 31.2312933, "lon": -84.21046109999999}, "dp357bvemnyt": {"city": "Morris_IL", "population": 13812, "lat": 41.357254, "lon": -88.4211785}, "dpsf43rk7xzq": {"city": "Birmingham_MI", "population": 18932, "lat": 42.5467012, "lon": -83.21131919999999}, "dnup0mr0qfe8": {"city": "Montgomery_OH", "population": 10458, "lat": 39.2281143, "lon": -84.35410619999999}, "dr6bncp1b58j": {"city": "Mendham_NJ", "population": 5053, "lat": 40.7870633, "lon": -74.57656860000002}, "dn83c3hn7wem": {"city": "Sikeston_MO", "population": 17053, "lat": 36.876719, "lon": -89.5878579}, "dp3jmsu6r0yg": {"city": "Montgomery_IL", "population": 15229, "lat": 41.730585, "lon": -88.3459048}, "dnck7ddpxrs3": {"city": "Olney_IL", "population": 8407, "lat": 38.7308811, "lon": -88.0853154}, "9qbbfc5rycvj": {"city": "Novato_CA", "population": 52785, "lat": 38.1074198, "lon": -122.5697032}, "dr708mu6f6jt": {"city": "Rockaway_NJ", "population": 6263, "lat": 40.9012101, "lon": -74.51432319999999}, "9vfgmsv09ee0": {"city": "Southlake_TX", "population": 26595, "lat": 32.9412363, "lon": -97.1341783}, "dn490k06qd9b": {"city": "Oneonta_AL", "population": 7040, "lat": 33.9481537, "lon": -86.472764}, "9q5b5xtw4czy": {"city": "Lomita_CA", "population": 20156, "lat": 33.7922392, "lon": -118.3150722}, "c3fmpytx77uv": {"city": "DawsonCreek_BC", "population": 11583, "lat": 55.75962740000001, "lon": -120.2376623}, "9yj871d42z77": {"city": "Prescott_AR", "population": 4353, "lat": 33.8026107, "lon": -93.38100569999999}, "9rb7s3ukh31u": {"city": "JunctionCity_OR", "population": 5618, "lat": 44.21929009999999, "lon": -123.2056484}, "dp3u3ux7t14q": {"city": "Highland_IN", "population": 22641, "lat": 41.5536468, "lon": -87.451984}, "dp98bjk9hc95": {"city": "ParkCity_IL", "population": 6609, "lat": 42.3483554, "lon": -87.8842397}, "9veb16r2339e": {"city": "Madisonville_TX", "population": 4372, "lat": 30.9499111, "lon": -95.9116188}, "9vz2h18ezf78": {"city": "Vicksburg_MS", "population": 24974, "lat": 32.3526456, "lon": -90.877882}, "9qh1b0csd0hy": {"city": "MontereyPark_CA", "population": 61234, "lat": 34.0625106, "lon": -118.1228476}, "dp3us7u6bwp6": {"city": "Gary_IN", "population": 95920, "lat": 41.5933696, "lon": -87.3464271}, "9vu0uzkcxv70": {"city": "Lindale_TX", "population": 4687, "lat": 32.5156971, "lon": -95.4093998}, "9zpp4h6v90ge": {"city": "FortMadison_IA", "population": 10897, "lat": 40.6297634, "lon": -91.31453499999999}, "dp3tceuu98jn": {"city": "Lyons_IL", "population": 10250, "lat": 41.8133651, "lon": -87.8181128}, "9vu6pw14bbej": {"city": "Gilmer_TX", "population": 5249, "lat": 32.7287472, "lon": -94.94243790000002}, "djj0hgf759cq": {"city": "TarponSprings_FL", "population": 23369, "lat": 28.1461248, "lon": -82.7567679}, "c93z0dzyxh0c": {"city": "Lloydminster_AB", "population": 27804, "lat": 53.2779625, "lon": -110.0061451}, "9v1zxty20ctd": {"city": "TerrellHills_TX", "population": 5241, "lat": 29.4749535, "lon": -98.45084969999999}, "djvwwfff4ksk": {"city": "NorthAugusta_SC", "population": 20712, "lat": 33.5018026, "lon": -81.9651152}, "dr4s2mcm4rrc": {"city": "Ambler_PA", "population": 6196, "lat": 40.1545535, "lon": -75.22156509999999}, "9vtq7b38gt0r": {"city": "Mansfield_LA", "population": 5402, "lat": 32.0376629, "lon": -93.70018189999999}, "dr6gkk47qu3x": {"city": "PortJervis_NY", "population": 9111, "lat": 41.3750937, "lon": -74.692663}, "dr6bwu75vs80": {"city": "Wharton_NJ", "population": 6083, "lat": 40.8931546, "lon": -74.5818254}, "dn0txfk5u77f": {"city": "Ripley_MS", "population": 5646, "lat": 34.7298181, "lon": -88.9506181}, "9vg4v3nkb0wq": {"city": "HighlandPark_TX", "population": 9184, "lat": 32.8334607, "lon": -96.79194539999999}, "dr73rngwn4sx": {"city": "Irvington_NY", "population": 6666, "lat": 41.0391, "lon": -73.86699999999999}, "dnuxyefd46jc": {"city": "Greenfield_OH", "population": 5063, "lat": 39.3520084, "lon": -83.38269280000002}, "9tskj4831jpe": {"city": "Socorro_TX", "population": 32007, "lat": 31.654557, "lon": -106.3033145}, "9r4bfvng81e7": {"city": "Sparks_NV", "population": 88602, "lat": 39.5349112, "lon": -119.7526886}, "9tbn5nxwuz4b": {"city": "Goodyear_AZ", "population": 59508, "lat": 33.4353394, "lon": -112.3576567}, "c20h3vt7f8jh": {"city": "SweetHome_OR", "population": 8930, "lat": 45.7779272, "lon": -123.6657716}, "9z491eskcfk7": {"city": "Concordia_KS", "population": 5208, "lat": 39.5708354, "lon": -97.6625396}, "dn4cdb5gkn6h": {"city": "Gadsden_AL", "population": 36816, "lat": 34.014264, "lon": -86.0066386}, "dr76pjrxjexq": {"city": "Ossining_NY", "population": 23798, "lat": 41.1628731, "lon": -73.8615246}, "9vgx52t44gt2": {"city": "Bonham_TX", "population": 10660, "lat": 33.5773275, "lon": -96.1783111}, "dr70v4nc5ezw": {"city": "LincolnPark_NJ", "population": 10635, "lat": 40.9242652, "lon": -74.3020933}, "9udjwhpdsr4n": {"city": "Edinburg_TX", "population": 71520, "lat": 26.3017374, "lon": -98.1633432}, "9zs69dujdn03": {"city": "StormLake_IA", "population": 9591, "lat": 42.6430359, "lon": -95.2019399}, "dp5yet9ydtrp": {"city": "Celina_OH", "population": 10255, "lat": 40.5489358, "lon": -84.5702338}, "dpt55f9vjxeg": {"city": "NewHaven_MI", "population": 5132, "lat": 42.7294758, "lon": -82.8013107}, "9zpewkgp179m": {"city": "Beardstown_IL", "population": 5859, "lat": 40.0175483, "lon": -90.42429159999999}, "9yzu3qpupmmv": {"city": "Dellwood_MO", "population": 4901, "lat": 38.749495, "lon": -90.2856687}, "dr792bz8n8pz": {"city": "Scarsdale_NY", "population": 17695, "lat": 41.0050977, "lon": -73.7845768}, "9vkks72ygxbz": {"city": "Cleveland_TX", "population": 7960, "lat": 30.34132, "lon": -95.0854885}, "9v9m13zzgerh": {"city": "Coleman_TX", "population": 4691, "lat": 31.8273679, "lon": -99.4264532}, "dr7370m3mnpj": {"city": "Hillsdale_NJ", "population": 9848, "lat": 41.0025975, "lon": -74.0404175}, "9yscsxg34r6j": {"city": "Neosho_MO", "population": 11317, "lat": 36.8689554, "lon": -94.36799599999999}, "dnn0bt4kfsep": {"city": "Batesburg-Leesville_SC", "population": 5580, "lat": 33.9101425, "lon": -81.5373261}, "dp7mb1rdjdf9": {"city": "Sturgis_MI", "population": 10916, "lat": 41.799217, "lon": -85.41914820000001}, "dry4fhppjj7b": {"city": "Lewiston_ME", "population": 35131, "lat": 44.100351, "lon": -70.21477639999999}, "c3qcedk3up0g": {"city": "SylvanLake_AB", "population": 12762, "lat": 52.30762010000001, "lon": -114.0979947}, "c0rgkbde9r0k": {"city": "Hoquiam_WA", "population": 8848, "lat": 46.9809247, "lon": -123.8893348}, "dnewnvnv9q87": {"city": "Danville_KY", "population": 15524, "lat": 37.6456329, "lon": -84.77217019999999}, "9vg42c0r5f1w": {"city": "GrandPrairie_TX", "population": 160641, "lat": 32.7459645, "lon": -96.99778459999999}, "9qc0cbxkmus3": {"city": "Vallejo_CA", "population": 114729, "lat": 38.1040864, "lon": -122.2566367}, "dpqd5efgpe9m": {"city": "Girard_OH", "population": 10069, "lat": 41.1539465, "lon": -80.7014662}, "9y70d4kzg7tf": {"city": "Tecumseh_OK", "population": 6667, "lat": 35.2578498, "lon": -96.9366888}, "9qh0ty32n4eh": {"city": "Placentia_CA", "population": 49692, "lat": 33.8722371, "lon": -117.8703363}, "dn65mu798nu1": {"city": "SpringHill_TN", "population": 26230, "lat": 35.751179, "lon": -86.9300023}, "9qcuf5jyqkf2": {"city": "Loomis_CA", "population": 6795, "lat": 38.8212889, "lon": -121.1930041}, "9x52gm4dr68v": {"city": "Rifle_CO", "population": 9202, "lat": 39.5347023, "lon": -107.7831198}, "dp3swmnw95yh": {"city": "SouthHolland_IL", "population": 21083, "lat": 41.6008681, "lon": -87.60698939999999}, "dprczvcgmbpu": {"city": "DuBois_PA", "population": 7648, "lat": 41.1210115, "lon": -78.7583257}, "f80t7rrvqf5e": {"city": "Fredericton_NB", "population": 61522, "lat": 45.9635895, "lon": -66.6431151}, "dr28h60ndrzp": {"city": "StateCollege_PA", "population": 39419, "lat": 40.7933949, "lon": -77.8600012}, "9xugznzwk1fs": {"city": "Gillette_WY", "population": 26871, "lat": 44.2910915, "lon": -105.5022205}, "9my3zxd8mpyh": {"city": "Yuma_AZ", "population": 90041, "lat": 32.6926512, "lon": -114.6276916}, "dr4s47pxb99v": {"city": "Jenkintown_PA", "population": 4299, "lat": 40.0959438, "lon": -75.1251743}, "dnju0g83d7t9": {"city": "Clinton_SC", "population": 8892, "lat": 34.4726276, "lon": -81.88065619999999}, "9z7ct267vbvk": {"city": "Glenwood_IA", "population": 5646, "lat": 41.0469437, "lon": -95.7425056}, "9xjqkbtnmje2": {"city": "Windsor_CO", "population": 18058, "lat": 40.4774818, "lon": -104.9013617}, "9yz72gr128hs": {"city": "Washington_MO", "population": 14392, "lat": 38.55810719999999, "lon": -91.01208779999999}, "dpdg2t1rks2p": {"city": "Holland_MI", "population": 34076, "lat": 42.7875235, "lon": -86.1089301}, "dq9d2hqvytxe": {"city": "Smithfield_VA", "population": 7034, "lat": 36.9823709, "lon": -76.63106619999999}, "dpw72ekw714x": {"city": "St.Thomas_ON", "population": 41688, "lat": 42.7777214, "lon": -81.18265269999999}, "dngyv4nh2fx7": {"city": "St.Bernard_OH", "population": 4626, "lat": 39.1670033, "lon": -84.49855409999999}, "dr6b3jppsxk4": {"city": "Hackettstown_NJ", "population": 9511, "lat": 40.8539879, "lon": -74.8290555}, "dr7m6pgtk5qy": {"city": "NewPaltz_NY", "population": 6553, "lat": 41.7475933, "lon": -74.0868095}, "c8wz837zut1y": {"city": "Estevan_SK", "population": 11054, "lat": 49.1390842, "lon": -102.9914807}, "9rcgfeefdyxe": {"city": "Redmond_OR", "population": 24551, "lat": 44.2726203, "lon": -121.1739212}, "dp3t9z63qbjk": {"city": "Summit_IL", "population": 10223, "lat": 41.7880876, "lon": -87.810334}, "9yzvjmzn26j8": {"city": "EastAlton_IL", "population": 6563, "lat": 38.8803256, "lon": -90.1112184}, "dhvn5ukzd3zy": {"city": "MadeiraBeach_FL", "population": 4339, "lat": 27.7980814, "lon": -82.79732469999999}, "djgx01147628": {"city": "Carrollton_GA", "population": 23291, "lat": 33.5801103, "lon": -85.0766113}, "dn5s6ch80uqu": {"city": "Calhoun_GA", "population": 14807, "lat": 34.502587, "lon": -84.9510542}, "dp6uwcc6295z": {"city": "Goshen_IN", "population": 32630, "lat": 41.5822716, "lon": -85.8344383}, "dr78431bpsdh": {"city": "GreatNeckPlaza_NY", "population": 7001, "lat": 40.7867681, "lon": -73.7265202}, "dnb5s7sk1z8c": {"city": "Lebanon_IL", "population": 4477, "lat": 38.6039375, "lon": -89.80731949999999}, "9q576tzxtbtm": {"city": "SantaPaula_CA", "population": 28618, "lat": 34.3541659, "lon": -119.0592705}, "dnmjepk3djhh": {"city": "Greeneville_TN", "population": 15440, "lat": 36.1631574, "lon": -82.83098609999999}, "9udsdm71q3nz": {"city": "SanBenito_TX", "population": 25072, "lat": 26.132576, "lon": -97.6311006}, "c22gcnkg322y": {"city": "DuPont_WA", "population": 6944, "lat": 47.10032229999999, "lon": -122.6447892}, "dhxj125e9ggh": {"city": "Lauderdale-by-the-Sea_FL", "population": 5831, "lat": 26.192028, "lon": -80.0964326}, "dpsb7fr5gqqn": {"city": "Ecorse_MI", "population": 9858, "lat": 42.2444833, "lon": -83.1457569}, "9x0qkfbtkmfb": {"city": "Bluffdale_UT", "population": 8016, "lat": 40.4896711, "lon": -111.9388244}, "dphumwd2rgfz": {"city": "Powell_OH", "population": 12814, "lat": 40.1578402, "lon": -83.07518689999999}, "9xj788s586eu": {"city": "Lafayette_CO", "population": 25065, "lat": 39.9935959, "lon": -105.0897058}, "9vf9y5zr5gxq": {"city": "Benbrook_TX", "population": 22957, "lat": 32.673188, "lon": -97.4605759}, "9pzzcbkum9m8": {"city": "LincolnCity_OR", "population": 8066, "lat": 44.95816440000001, "lon": -124.0178914}, "c2gjvyuf8dwb": {"city": "Vernon_BC", "population": 44600, "lat": 50.2670137, "lon": -119.2720107}, "dn1ts68gyvjb": {"city": "Tuscumbia_AL", "population": 8308, "lat": 34.7312005, "lon": -87.70253}, "9qh44zc8erdn": {"city": "Monrovia_CA", "population": 37651, "lat": 34.1442616, "lon": -118.0019482}, "f0j2712pynbj": {"city": "Huron_CA", "population": 7606, "lat": 45.0521793, "lon": -82.48509399999999}, "dp5ds68u65fx": {"city": "Richmond_IN", "population": 36733, "lat": 39.8289369, "lon": -84.8902382}, "djfnsby4vgc3": {"city": "PleasantGrove_AL", "population": 10254, "lat": 33.4909405, "lon": -86.9702714}, "dph4ujb79j16": {"city": "Vandalia_OH", "population": 14124, "lat": 39.8906122, "lon": -84.1988308}, "9yuubcebp07u": {"city": "Belton_MO", "population": 24591, "lat": 38.8119527, "lon": -94.5318982}, "dr5pne08xdt1": {"city": "Linden_NJ", "population": 39162, "lat": 40.6220478, "lon": -74.24459019999999}, "dree4fu2szgv": {"city": "Watervliet_NY", "population": 9765, "lat": 42.7300783, "lon": -73.7012299}, "9yntuu0x658z": {"city": "Lonoke_AR", "population": 4600, "lat": 34.7839795, "lon": -91.8998611}, "drmq9gg2svtz": {"city": "Attleboro_MA", "population": 42833, "lat": 41.94454409999999, "lon": -71.2856082}, "9vfgqgtbjhgz": {"city": "Grapevine_TX", "population": 50471, "lat": 32.9342919, "lon": -97.0780654}, "9vgjcxekxpms": {"city": "PilotPoint_TX", "population": 4409, "lat": 33.396503, "lon": -96.9605608}, "dr5x41zg27g0": {"city": "Lawrence_NY", "population": 6573, "lat": 40.6156599, "lon": -73.72957629999999}, "9vg49vegx028": {"city": "Irving_TX", "population": 201358, "lat": 32.8140177, "lon": -96.9488945}, "dp6rryunrrzc": {"city": "St.Joseph_MI", "population": 8458, "lat": 42.0938577, "lon": -86.4895463}, "cbjb7x993h4r": {"city": "WhiteBearLake_MN", "population": 24095, "lat": 45.0853814, "lon": -93.0081479}, "9rv286986uz4": {"city": "Eagle_ID", "population": 19471, "lat": 43.6954424, "lon": -116.3540138}, "dnq82kgudsgw": {"city": "Charlotte_NC", "population": 687456, "lat": 35.2270869, "lon": -80.8431267}, "dpybduqtssp2": {"city": "Fergus_ON", "population": 19126, "lat": 43.7059522, "lon": -80.3778336}, "dppjynzj50ns": {"city": "Swissvale_PA", "population": 8765, "lat": 40.4236801, "lon": -79.88282749999999}, "dn8y8k8ueyxh": {"city": "Marion_IL", "population": 17388, "lat": 37.7306054, "lon": -88.9331256}, "9x0s5nxqe9x5": {"city": "SpanishFork_UT", "population": 31538, "lat": 40.114955, "lon": -111.654923}, "9ymndq0cr5kd": {"city": "Rogers_AR", "population": 56726, "lat": 36.3320196, "lon": -94.1185366}, "9ysxkbe88g08": {"city": "FortScott_KS", "population": 7941, "lat": 37.8397626, "lon": -94.7082951}, "dppqvrw8ww9g": {"city": "Vandergrift_PA", "population": 4997, "lat": 40.6028434, "lon": -79.56476669999999}, "dpe2u369rd6s": {"city": "Springfield_MI", "population": 5037, "lat": 42.3264298, "lon": -85.2391614}, "dph4b2fe3y66": {"city": "Clayton_OH", "population": 12906, "lat": 39.8631101, "lon": -84.3605022}, "9q5bxfc7xm3w": {"city": "Lakewood_CA", "population": 78444, "lat": 33.8536269, "lon": -118.1339563}, "dhwvmqs8z35h": {"city": "CoralSprings_FL", "population": 125783, "lat": 26.271192, "lon": -80.2706044}, "dnb567fu8t17": {"city": "Shiloh_IL", "population": 11173, "lat": 38.5614383, "lon": -89.8973233}, "9v6mvq9w6nrx": {"city": "Leander_TX", "population": 25424, "lat": 30.5788055, "lon": -97.8530686}, "dpyvnt5gf8s9": {"city": "Collingwood_ON", "population": 17233, "lat": 44.50076869999999, "lon": -80.2169047}, "dpt464d550n7": {"city": "MountClemens_MI", "population": 16781, "lat": 42.5972563, "lon": -82.8779754}, "dr65mr8nhy66": {"city": "Taylor_PA", "population": 6151, "lat": 41.3948017, "lon": -75.70658019999999}, "dp8kth76eskn": {"city": "Fitchburg_WI", "population": 23344, "lat": 43.0023146, "lon": -89.424092}, "drt9204xh86g": {"city": "Revere_MA", "population": 60204, "lat": 42.4084302, "lon": -71.0119948}, "9z77snsnypye": {"city": "Fremont_NE", "population": 25224, "lat": 41.4333909, "lon": -96.49814669999999}, "9q5cmdpjshs8": {"city": "HuntingtonPark_CA", "population": 60898, "lat": 33.9816812, "lon": -118.2250725}, "dn3nw0d6qrwy": {"city": "Paris_TN", "population": 9966, "lat": 36.3020023, "lon": -88.32671069999999}, "dprwp12qdv3k": {"city": "Warren_PA", "population": 9403, "lat": 41.8439486, "lon": -79.1450445}, "dpmuhfxzp3vw": {"city": "Cleveland_OH", "population": 433748, "lat": 41.49932, "lon": -81.6943605}, "dr1z6ns5h4n1": {"city": "Pottsville_PA", "population": 14405, "lat": 40.6856456, "lon": -76.195499}, "9yr2qh7jf8y7": {"city": "Wynne_AR", "population": 8437, "lat": 35.224533, "lon": -90.78677979999999}, "cbj8wgpe7pj8": {"city": "MoundsView_MN", "population": 12005, "lat": 45.1049656, "lon": -93.2085582}, "9zvwqz0ym8q1": {"city": "AppleValley_MN", "population": 50004, "lat": 44.7319094, "lon": -93.21772000000001}, "9yegy07qfsmr": {"city": "Independence_KS", "population": 9245, "lat": 37.2242358, "lon": -95.7083131}, "dp3md08838xb": {"city": "Naperville_IL", "population": 143117, "lat": 41.7508391, "lon": -88.1535352}, "dp3v1586ntvx": {"city": "Whiting_IN", "population": 4751, "lat": 41.6797578, "lon": -87.4944873}, "dpnedstppvmm": {"city": "Bellaire_OH", "population": 4557, "lat": 40.0161843, "lon": -80.7423054}, "9vsyvq1d6fck": {"city": "Carthage_TX", "population": 6633, "lat": 32.1573841, "lon": -94.3374199}, "dr369wh5muz4": {"city": "Montoursville_PA", "population": 4558, "lat": 41.2542459, "lon": -76.9205199}, "drb1gnpszh84": {"city": "Clarington_ON", "population": 43555, "lat": 43.9351662, "lon": -78.6075637}, "9xs7ug9hjxmh": {"city": "Casper_WY", "population": 54047, "lat": 42.866632, "lon": -106.313081}, "9vg4vm44kwuj": {"city": "UniversityPark_TX", "population": 24853, "lat": 32.8550377, "lon": -96.797592}, "9q75qrwbw780": {"city": "Delano_CA", "population": 53051, "lat": 35.7688425, "lon": -119.2470536}, "dpz04x79yn0s": {"city": "Acton_ON", "population": 9704, "lat": 43.6339088, "lon": -80.041322}, "dngyf866pdqs": {"city": "Cheviot_OH", "population": 8385, "lat": 39.1570028, "lon": -84.6132787}, "9q7r1ufuqext": {"city": "Woodlake_CA", "population": 7418, "lat": 36.4135605, "lon": -119.0987176}, "9vfdrwzs292u": {"city": "RiverOaks_TX", "population": 6965, "lat": 32.7770737, "lon": -97.394463}, "9x0qz09k55cz": {"city": "Sandy_UT", "population": 96660, "lat": 40.5649781, "lon": -111.8389726}, "cbj9z4hh9w1p": {"city": "EastBethel_MN", "population": 11895, "lat": 45.3194095, "lon": -93.20244869999999}, "9vg5qy53znd9": {"city": "Richardson_TX", "population": 101589, "lat": 32.9483335, "lon": -96.7298519}, "9qbdxtf7er2d": {"city": "SantaRosa_CA", "population": 155796, "lat": 38.440429, "lon": -122.7140548}, "9x5b0kgnqz6y": {"city": "Carbondale_CO", "population": 6266, "lat": 39.4022054, "lon": -107.2111628}, "dnr5pu3mxm9p": {"city": "Asheboro_NC", "population": 24609, "lat": 35.7079146, "lon": -79.8136446}, "9mgzfncpwx98": {"city": "RanchoPalosVerdes_CA", "population": 41106, "lat": 33.7444613, "lon": -118.3870173}, "dpqc78mpdyry": {"city": "NewCastle_PA", "population": 24212, "lat": 41.0036719, "lon": -80.34700900000001}, "9yq23wjkg873": {"city": "Greenbrier_AR", "population": 4452, "lat": 35.2339712, "lon": -92.387655}, "9qnsnt8gm9p1": {"city": "LakeHavasuCity_AZ", "population": 56553, "lat": 34.483901, "lon": -114.3224548}, "dphnu1hheygz": {"city": "Wapakoneta_OH", "population": 9438, "lat": 40.5678265, "lon": -84.1935594}, "dr4648tcky2m": {"city": "PennsGrove_NJ", "population": 4688, "lat": 39.7295581, "lon": -75.46797339999999}, "dpms58x6rtbz": {"city": "SheffieldLake_OH", "population": 8905, "lat": 41.48754, "lon": -82.1015369}, "9x264dn3vtfk": {"city": "Sunset_UT", "population": 4945, "lat": 41.1441309, "lon": -112.029752}, "djdfnx2h0t31": {"city": "CherryHillsVillage_CO", "population": 6355, "lat": 31.329603, "lon": -85.847145}, "dps28pf0u2h5": {"city": "Chelsea_MI", "population": 5005, "lat": 42.3180919, "lon": -84.0205029}, "dpqgd9kyty09": {"city": "Greenville_PA", "population": 6103, "lat": 41.404499, "lon": -80.39117850000001}, "dn5b657hsn9d": {"city": "Austell_GA", "population": 7062, "lat": 33.8126059, "lon": -84.6343783}, "dp8t9vkd9x2g": {"city": "SunPrairie_WI", "population": 28322, "lat": 43.1836046, "lon": -89.2137254}, "9yt8qyb2g5v8": {"city": "Branson_MO", "population": 7651, "lat": 36.6436731, "lon": -93.21851439999999}, "djwjtyhtukns": {"city": "RichmondHill_GA", "population": 10571, "lat": 31.9382652, "lon": -81.3034433}, "9zswcuuppt9u": {"city": "Estherville_IA", "population": 6291, "lat": 43.4013478, "lon": -94.8391532}, "9mupbqqtzn01": {"city": "SealBeach_CA", "population": 24127, "lat": 33.7414064, "lon": -118.1047866}, "9zyyzhmn4wjj": {"city": "Altoona_WI", "population": 6753, "lat": 44.8046825, "lon": -91.44321479999999}, "dhvjvk8kf0jk": {"city": "SouthPasadena_FL", "population": 5548, "lat": 27.7550276, "lon": -82.73760089999999}, "fb6new4c93qd": {"city": "BayRoberts_NL", "population": 10638, "lat": 47.5820518, "lon": -53.2798524}, "dq21bpzguh50": {"city": "Angier_NC", "population": 4344, "lat": 35.5071044, "lon": -78.7391813}, "9zkhyydn9d5j": {"city": "Harlan_IA", "population": 4986, "lat": 41.653044, "lon": -95.32555409999999}, "9xjkncjqr6wn": {"city": "FortLupton_CO", "population": 7620, "lat": 40.0847055, "lon": -104.8130275}, "9x266hybv5yg": {"city": "WestHaven_UT", "population": 8357, "lat": 41.2029998, "lon": -112.0510533}, "dr73ftcuru99": {"city": "Kaser_NY", "population": 4315, "lat": 41.1212068, "lon": -74.06708619999999}, "9vm74yr07gw9": {"city": "Orange_TX", "population": 19494, "lat": 30.0929879, "lon": -93.7365549}, "dngvv5r9kb3k": {"city": "TaylorMill_KY", "population": 6746, "lat": 38.9975616, "lon": -84.4963305}, "9yus6hyntqdj": {"city": "SpringHill_KS", "population": 5227, "lat": 38.7430645, "lon": -94.8255166}, "dp3wcpukthr4": {"city": "ParkRidge_IL", "population": 36927, "lat": 42.0111412, "lon": -87.84061919999999}, "9x0rpd3fgdbg": {"city": "CottonwoodHeights_UT", "population": 35418, "lat": 40.6183158, "lon": -111.8162931}, "9tvbknnbh59g": {"city": "Carlsbad_NM", "population": 25629, "lat": 32.4206736, "lon": -104.2288375}, "dnx81k629zkn": {"city": "Danville_VA", "population": 44660, "lat": 36.5859718, "lon": -79.39502279999999}, "9vercjreuh6h": {"city": "Ennis_TX", "population": 19506, "lat": 32.3293111, "lon": -96.6252679}, "9v7qx01e15gn": {"city": "Bryan_TX", "population": 72357, "lat": 30.6743643, "lon": -96.3699632}, "dp15zg9pcgns": {"city": "Savoy_IL", "population": 5579, "lat": 40.054753, "lon": -88.2517165}, "dnjzw08kj23g": {"city": "Gaffney_SC", "population": 13200, "lat": 35.0717945, "lon": -81.64981949999999}, "dngytb2bfcqu": {"city": "Dayton_KY", "population": 5453, "lat": 39.1128377, "lon": -84.4727197}, "dn206bgc28df": {"city": "Bartlett_TN", "population": 47501, "lat": 35.2045328, "lon": -89.8739753}, "dn91tt9m0qw7": {"city": "Benton_KY", "population": 4367, "lat": 36.85727809999999, "lon": -88.350315}, "drkepz3xezk8": {"city": "Groton_CT", "population": 9316, "lat": 41.3497456, "lon": -72.0790717}, "9rv24vjvnnz4": {"city": "GardenCity_ID", "population": 11713, "lat": 43.6221108, "lon": -116.2381744}, "9y7yg5uqb361": {"city": "Collinsville_OK", "population": 5039, "lat": 36.3645384, "lon": -95.83887659999999}, "9vmxmpkuz80e": {"city": "DeRidder_LA", "population": 10008, "lat": 30.8463055, "lon": -93.2890527}, "9udhznsgnbsx": {"city": "Alamo_TX", "population": 16608, "lat": 26.1836854, "lon": -98.1230638}, "dpqf9671cuum": {"city": "Hermitage_PA", "population": 16327, "lat": 41.2333896, "lon": -80.44868}, "dj8ef33dzw9s": {"city": "Ellisville_MS", "population": 4392, "lat": 31.6040538, "lon": -89.1956142}, "9zvrvfz357d5": {"city": "Orono_MN", "population": 7732, "lat": 44.97135189999999, "lon": -93.6044033}, "9vb4ps459019": {"city": "Snyder_TX", "population": 10406, "lat": 32.7178862, "lon": -100.9176184}, "9whn50r0s7we": {"city": "LosLunas_NM", "population": 14153, "lat": 34.806166, "lon": -106.7333599}, "drmrrvjczbde": {"city": "Brockton_MA", "population": 93007, "lat": 42.0834335, "lon": -71.0183787}, "c2kcce75fs3t": {"city": "Moscow_ID", "population": 22798, "lat": 46.73238749999999, "lon": -117.0001651}, "dp999t09xfdy": {"city": "WinthropHarbor_IL", "population": 7210, "lat": 42.4789097, "lon": -87.8236841}, "9vvec0e98y95": {"city": "Springhill_LA", "population": 5115, "lat": 33.0059692, "lon": -93.4668396}, "dpwkz6y53p19": {"city": "Ingersoll_ON", "population": 12146, "lat": 43.03816279999999, "lon": -80.88404899999999}, "9vqe4xqz4ufs": {"city": "Youngsville_LA", "population": 6980, "lat": 30.0996471, "lon": -91.9901206}, "dr5keyd59d2p": {"city": "BradleyBeach_NJ", "population": 4845, "lat": 40.2023354, "lon": -74.0120814}, "9zvvbqwbmbx2": {"city": "Farmington_MN", "population": 19057, "lat": 44.6402434, "lon": -93.1435497}, "9qh9h75cnwjp": {"city": "MorenoValley_CA", "population": 190871, "lat": 33.9424658, "lon": -117.2296717}, "dph4ttq7c643": {"city": "HuberHeights_OH", "population": 37148, "lat": 39.843947, "lon": -84.12466080000002}, "djfq315hfmn8": {"city": "VestaviaHills_AL", "population": 30892, "lat": 33.4487183, "lon": -86.7877668}, "dqcrbxcb922y": {"city": "Sykesville_MD", "population": 4419, "lat": 39.3737149, "lon": -76.9677566}, "dr502c9zk5y7": {"city": "Absecon_NJ", "population": 8389, "lat": 39.4284503, "lon": -74.4957076}, "cbhjj9h47m9r": {"city": "Alexandria_MN", "population": 11237, "lat": 45.8848164, "lon": -95.3776663}, "cbj535y24gcy": {"city": "SaukRapids_MN", "population": 12013, "lat": 45.5919097, "lon": -94.16610109999999}, "dp3xd2pbuf5q": {"city": "Northfield_IL", "population": 5429, "lat": 42.09975, "lon": -87.7808967}, "9vkdfzuh9200": {"city": "Liberty_TX", "population": 8347, "lat": 30.057993, "lon": -94.7954783}, "dr65ke7s8sfu": {"city": "OldForge_PA", "population": 8524, "lat": 41.3711906, "lon": -75.7349143}, "9mustcd4nuqh": {"city": "SanMarcos_CA", "population": 79114, "lat": 33.1433723, "lon": -117.1661449}, "9z7sk6ux6sbj": {"city": "Blair_NE", "population": 7789, "lat": 41.5446975, "lon": -96.1350702}, "9zqxf5f4uh0b": {"city": "Vinton_IA", "population": 5080, "lat": 42.1646477, "lon": -92.01856509999999}, "dngykys0pjwc": {"city": "Cincinnati_OH", "population": 333336, "lat": 39.1031182, "lon": -84.5120196}, "dn28x41n1nf5": {"city": "Bolivar_TN", "population": 5647, "lat": 35.2561937, "lon": -88.9878389}, "dp9wb66uvhfs": {"city": "PortWashington_WI", "population": 11174, "lat": 43.3872247, "lon": -87.875644}, "9qx5mnm4tz7r": {"city": "Ivins_UT", "population": 7870, "lat": 37.1685907, "lon": -113.6794057}, "9yz9rmun2mwj": {"city": "CrystalCity_MO", "population": 4538, "lat": 38.2211656, "lon": -90.3790094}, "f2k2bsmf3p01": {"city": "Shawinigan_QC", "population": 47735, "lat": 46.5618559, "lon": -72.74352540000001}, "9tbbt0f7978j": {"city": "Marana_AZ", "population": 34466, "lat": 32.436381, "lon": -111.2224422}, "dr2xdhpfw85x": {"city": "Wellsville_NY", "population": 4896, "lat": 42.1220124, "lon": -77.94805749999999}, "dp6tvnzsh40j": {"city": "Niles_MI", "population": 11258, "lat": 41.8297694, "lon": -86.2541768}, "9zrsfxw7fnpu": {"city": "Eldridge_IA", "population": 4880, "lat": 41.65808639999999, "lon": -90.5845822}, "c0pftg599kf3": {"city": "Tillamook_OR", "population": 4430, "lat": 45.4562158, "lon": -123.8440137}, "9vu1g45sceds": {"city": "Mineola_TX", "population": 5179, "lat": 32.6631884, "lon": -95.4882896}, "9yq9cv0bu1ng": {"city": "HeberSprings_AR", "population": 7203, "lat": 35.4914677, "lon": -92.03125999999999}, "9t9e6wdtbgrv": {"city": "SierraVista_AZ", "population": 43320, "lat": 31.5455001, "lon": -110.2772856}, "9yzgvck37x7f": {"city": "WashingtonPark_IL", "population": 5558, "lat": 38.6350501, "lon": -90.0928852}, "dpqh3hqnu88y": {"city": "RichmondHeights_OH", "population": 10174, "lat": 41.5528288, "lon": -81.5101208}, "dp3k7kb9bpmt": {"city": "CrestHill_IL", "population": 20451, "lat": 41.554753, "lon": -88.0986709}, "dq8beqrr34zs": {"city": "Emporia_VA", "population": 5643, "lat": 36.6859829, "lon": -77.5424809}, "dnhk2vk3mspy": {"city": "Dahlonega_GA", "population": 4947, "lat": 34.5261465, "lon": -83.9843953}, "9xj3uhjdq45f": {"city": "Glendale_CO", "population": 4798, "lat": 39.7049873, "lon": -104.9335904}, "dpm0j31hdpxx": {"city": "Crestline_OH", "population": 4882, "lat": 40.78755719999999, "lon": -82.7365677}, "dp0qb1jej32g": {"city": "Pekin_IL", "population": 33430, "lat": 40.5675388, "lon": -89.640658}, "c28gczknmsvq": {"city": "Anacortes_WA", "population": 16798, "lat": 48.51260449999999, "lon": -122.6126718}, "9qcex8yj9s6q": {"city": "RanchoCordova_CA", "population": 62265, "lat": 38.5890723, "lon": -121.302728}, "dn2yf0j5th4h": {"city": "Martin_TN", "population": 10208, "lat": 36.3433965, "lon": -88.8503379}, "9y7hwnbknnj7": {"city": "Cushing_OK", "population": 8767, "lat": 35.9850639, "lon": -96.76697}, "dpmev4p9snem": {"city": "Avon_OH", "population": 17086, "lat": 41.4517093, "lon": -82.03542250000001}, "9zvhjvr919rh": {"city": "St.Peter_MN", "population": 10971, "lat": 44.3258932, "lon": -93.955691}, "9zmketdpfg3v": {"city": "WindsorHeights_IA", "population": 4643, "lat": 41.6038268, "lon": -93.71051179999999}, "dptuqegc2y9v": {"city": "Strathroy_ON", "population": 14221, "lat": 42.95542, "lon": -81.62323330000001}, "9vrfhu0rk38q": {"city": "Westwego_LA", "population": 10098, "lat": 29.9060388, "lon": -90.14229619999999}, "9wghkuf9dy8j": {"city": "Delta_CO", "population": 9020, "lat": 38.7422062, "lon": -108.0689582}, "dp90z6w1et66": {"city": "McHenry_IL", "population": 26862, "lat": 42.333355, "lon": -88.2667534}, "dp50b4ejhccu": {"city": "Shelbyville_IN", "population": 18516, "lat": 39.5214373, "lon": -85.7769238}, "9qh10guuup2v": {"city": "SantaFeSprings_CA", "population": 17159, "lat": 33.9472359, "lon": -118.0853451}, "dnwdcb3gwku3": {"city": "Pulaski_VA", "population": 8983, "lat": 37.0478982, "lon": -80.7797935}, "9x2rqpmuvcef": {"city": "Preston_ID", "population": 5059, "lat": 42.0963133, "lon": -111.8766173}, "dqbvj8we3dq2": {"city": "RockyMount_VA", "population": 4535, "lat": 38.8509729, "lon": -77.444614}, "dnwqbt29fc77": {"city": "Beckley_WV", "population": 16832, "lat": 37.7781702, "lon": -81.1881557}, "dp1xgx0630wh": {"city": "Watseka_IL", "population": 5481, "lat": 40.7761465, "lon": -87.7364218}, "9qh03upy5fhz": {"city": "Cypress_CA", "population": 47123, "lat": 33.8169599, "lon": -118.0372852}, "dnmpzhbh7249": {"city": "MountCarmel_TN", "population": 5462, "lat": 36.54537699999999, "lon": -82.6609898}, "drmmhzd2z32u": {"city": "FallRiver_MA", "population": 90931, "lat": 41.7014912, "lon": -71.1550451}, "drtzmp155ngc": {"city": "Saco_ME", "population": 18125, "lat": 43.5009176, "lon": -70.4428286}, "9yz61sgytp1b": {"city": "St.Clair_MO", "population": 4472, "lat": 38.3475584, "lon": -90.9834027}, "c23n1fkk10zg": {"city": "Tukwila_WA", "population": 17092, "lat": 47.4739884, "lon": -122.2609558}, "dp8dy64t32my": {"city": "Janesville_WI", "population": 62516, "lat": 42.6827885, "lon": -89.0187222}, "dptk4gyzsg7r": {"city": "Marysville_MI", "population": 9943, "lat": 42.9125305, "lon": -82.4868599}, "dr1s5jgbxuj0": {"city": "MountJoy_PA", "population": 7249, "lat": 40.109818, "lon": -76.50329959999999}, "9vd3h1vnuctt": {"city": "CopperasCove_TX", "population": 30710, "lat": 31.124062, "lon": -97.90307849999999}, "f0q3kzcuxg77": {"city": "ValleyEast_ON", "population": 20676, "lat": 46.669339, "lon": -80.99945699999999}, "dpsbkpxkhzdm": {"city": "RiverRouge_MI", "population": 8449, "lat": 42.2733718, "lon": -83.1343677}, "dq3y2z5xmggp": {"city": "ElizabethCity_NC", "population": 20025, "lat": 36.2946008, "lon": -76.2510461}, "9udkbu0trgqc": {"city": "Donna_TX", "population": 17094, "lat": 26.1703525, "lon": -98.05194999999999}, "9y63zrg3xsee": {"city": "Yukon_OK", "population": 22849, "lat": 35.5067215, "lon": -97.76254410000001}, "dp3w1pfs503d": {"city": "Maywood_IL", "population": 25035, "lat": 41.8791979, "lon": -87.8431155}, "9vrfqk7vt5md": {"city": "NewOrleans_LA", "population": 311853, "lat": 29.95106579999999, "lon": -90.0715323}, "9v60zp7bw8bw": {"city": "NewBraunfels_TX", "population": 53547, "lat": 29.7030024, "lon": -98.1244531}, "dneg4b3htqh6": {"city": "Somerset_KY", "population": 12449, "lat": 37.0920222, "lon": -84.6041084}, "9qcryvcqtgzm": {"city": "Gridley_CA", "population": 6478, "lat": 39.3637773, "lon": -121.6935833}, "dnj52vf8n33y": {"city": "Hartwell_GA", "population": 4298, "lat": 34.3528825, "lon": -82.932087}, "9yut4q4ud1t2": {"city": "Olathe_KS", "population": 119993, "lat": 38.8813958, "lon": -94.81912849999999}, "djgyzpsnskre": {"city": "Riverdale_GA", "population": 15279, "lat": 33.5726113, "lon": -84.4132594}, "9yum8yef3vds": {"city": "Lawrence_KS", "population": 90520, "lat": 38.9716689, "lon": -95.2352501}, "dn4c912pns6q": {"city": "Attalla_AL", "population": 6540, "lat": 34.0217639, "lon": -86.0885852}, "9yvjy594emp5": {"city": "Odessa_MO", "population": 4737, "lat": 38.9991748, "lon": -93.95355579999999}, "dr733pkgur7q": {"city": "Allendale_NJ", "population": 6599, "lat": 41.0414857, "lon": -74.129032}, "dn8psjcx4e0b": {"city": "Chester_IL", "population": 7835, "lat": 37.9136628, "lon": -89.82205049999999}, "dq929sfyb9xu": {"city": "Franklin_VA", "population": 8877, "lat": 36.6776507, "lon": -76.9224608}, "dr3zmry9120c": {"city": "Endicott_NY", "population": 12411, "lat": 42.098408, "lon": -76.04936839999999}, "dpmg2hh70u0j": {"city": "OlmstedFalls_OH", "population": 8168, "lat": 41.375049, "lon": -81.9081937}, "dhx50xn2f0ty": {"city": "Surfside_FL", "population": 4520, "lat": 25.8784284, "lon": -80.12560069999999}, "9vq7cuqcu75e": {"city": "Crowley_LA", "population": 13922, "lat": 30.2140928, "lon": -92.3745761}, "9zvevxesyg9y": {"city": "Faribault_MN", "population": 22009, "lat": 44.2949636, "lon": -93.268827}, "9zet56qypbt5": {"city": "SiouxCenter_IA", "population": 6581, "lat": 43.0797991, "lon": -96.1756935}, "9y69j9k7e1tz": {"city": "Moore_OK", "population": 52615, "lat": 35.3395079, "lon": -97.48670279999999}, "9zmsbuvx28tu": {"city": "Altoona_IA", "population": 13854, "lat": 41.6435514, "lon": -93.47508359999999}, "dr9f67r1f5cc": {"city": "Cortland_NY", "population": 18434, "lat": 42.6011813, "lon": -76.1804843}, "dj6gxmqr7hqg": {"city": "PanamaCityBeach_FL", "population": 14642, "lat": 30.1765914, "lon": -85.8054879}, "9zm9ke6wzfjh": {"city": "Chariton_IA", "population": 4419, "lat": 41.0199996, "lon": -93.31409850000001}, "dr4dsv6hjh7q": {"city": "Somerdale_NJ", "population": 5085, "lat": 39.8440027, "lon": -75.0226691}, "9y6rh9x5sjtc": {"city": "Enid_OK", "population": 47396, "lat": 36.3955891, "lon": -97.8783911}, "cbjb2qkkcxq7": {"city": "Shoreview_MN", "population": 25111, "lat": 45.0791325, "lon": -93.14716670000001}, "dpq5hcwh5nkp": {"city": "Aurora_OH", "population": 14548, "lat": 41.3175549, "lon": -81.3453858}, "c2fcwe492shh": {"city": "Penticton_BC", "population": 36902, "lat": 49.4991381, "lon": -119.5937077}, "drk88dz81ey2": {"city": "Southampton_NY", "population": 4323, "lat": 40.884267, "lon": -72.3895296}, "dnpb3pxjh2jw": {"city": "Conway_SC", "population": 15894, "lat": 33.8360034, "lon": -79.0478143}, "9r89tecsyzq3": {"city": "EaglePoint_OR", "population": 8302, "lat": 42.4726258, "lon": -122.8028177}, "dr73c6nnq0e1": {"city": "Airmont_NY", "population": 8339, "lat": 41.1009293, "lon": -74.1162544}, "9xqmcnq8pnfz": {"city": "Gering_NE", "population": 7679, "lat": 41.82636189999999, "lon": -103.6577616}, "dnyp8r60rpww": {"city": "Vienna_WV", "population": 10536, "lat": 39.3270191, "lon": -81.5484578}, "9ysgmzv2s80b": {"city": "Carthage_MO", "population": 13916, "lat": 37.176447, "lon": -94.31022279999999}, "9xj3dcwhzzhk": {"city": "Englewood_CO", "population": 32669, "lat": 39.6477653, "lon": -104.9877597}, "dhyuhhs8tsz2": {"city": "FortPierce_FL", "population": 40885, "lat": 27.4467056, "lon": -80.3256056}, "dqb0q5p0bb7w": {"city": "Charlottesville_VA", "population": 41487, "lat": 38.0293059, "lon": -78.47667810000002}, "dnb5breqbp65": {"city": "Collinsville_IL", "population": 25960, "lat": 38.6703266, "lon": -89.9845476}, "dp3qgen6bh9z": {"city": "Roselle_IL", "population": 23209, "lat": 41.9847504, "lon": -88.07979329999999}, "dppmfry08870": {"city": "Murrysville_PA", "population": 19488, "lat": 40.4284015, "lon": -79.69754499999999}, "dnjdd35desd7": {"city": "Greenwood_SC", "population": 22533, "lat": 34.1954001, "lon": -82.1617883}, "9tbqp5nc9cf6": {"city": "Mesa_AZ", "population": 463552, "lat": 33.4151843, "lon": -111.8314724}, "9ufzrkzpev2w": {"city": "Rockport_TX", "population": 9810, "lat": 28.0205733, "lon": -97.0544341}, "dq2e4yzekr4v": {"city": "Wilson_NC", "population": 48433, "lat": 35.7212689, "lon": -77.9155395}, "dr738fk0nnbw": {"city": "Ramsey_NJ", "population": 14595, "lat": 41.0573188, "lon": -74.1409771}, "9veecj81r3ky": {"city": "Teague_TX", "population": 4749, "lat": 31.6271145, "lon": -96.28386200000001}, "dpxu4fn0yyy8": {"city": "FortErie_ON", "population": 15568, "lat": 42.9017764, "lon": -78.9721745}, "9v43xdjyffc9": {"city": "Beeville_TX", "population": 12682, "lat": 28.4008319, "lon": -97.7483312}, "dppjz4msuxef": {"city": "NorthBraddock_PA", "population": 5821, "lat": 40.3989579, "lon": -79.8408815}, "dp3syknk69yq": {"city": "Dolton_IL", "population": 23889, "lat": 41.6389236, "lon": -87.60726799999999}, "9ynhz3gxch0h": {"city": "Bryant_AR", "population": 15040, "lat": 34.5959265, "lon": -92.48904689999999}, "dnj6mmvqmc48": {"city": "Abbeville_SC", "population": 5547, "lat": 34.1781719, "lon": -82.3790147}, "9q57nc2xzejp": {"city": "Moorpark_CA", "population": 36372, "lat": 34.285558, "lon": -118.8820414}, "9q9htvvm814t": {"city": "MountainView_CA", "population": 71348, "lat": 37.3860517, "lon": -122.0838511}, "9u9w4ze48nbh": {"city": "Roma_TX", "population": 11257, "lat": 26.4088523, "lon": -99.0156554}, "c29009sc4g7x": {"city": "Lynnwood_WA", "population": 33572, "lat": 47.8209301, "lon": -122.3151313}, "dnxh4m1fhy66": {"city": "Salem_VA", "population": 25449, "lat": 37.2934681, "lon": -80.05476259999999}, "c29r8uvtub5w": {"city": "Chilliwack_BC", "population": 66382, "lat": 49.1579401, "lon": -121.9514666}, "dpj52sns5bzh": {"city": "Bexley_OH", "population": 12507, "lat": 39.9689532, "lon": -82.93768039999999}, "dr5r8ptq6sfg": {"city": "Newark_NJ", "population": 278980, "lat": 40.735657, "lon": -74.1723667}, "dhvx7kxhredg": {"city": "PlantCity_FL", "population": 32761, "lat": 28.0186323, "lon": -82.1128641}, "c0yutk68pdnc": {"city": "CampbellRiver_BC", "population": 34514, "lat": 50.03312260000001, "lon": -125.2733354}, "dp37tudxsr81": {"city": "Manhattan_IL", "population": 7166, "lat": 41.4225316, "lon": -87.98588629999999}, "c2shjj75heke": {"city": "Colville_WA", "population": 4929, "lat": 48.5449971, "lon": -117.9009544}, "ccfmjk51trjy": {"city": "Thompson_MB", "population": 12829, "lat": 55.7449251, "lon": -97.8508715}, "dnk73jq8d3rr": {"city": "Maryville_TN", "population": 27156, "lat": 35.7564719, "lon": -83.9704593}, "9q9qm5g0zdxb": {"city": "Livermore_CA", "population": 80188, "lat": 37.6818745, "lon": -121.7680088}, "9yysgxvd3r2b": {"city": "Fulton_MO", "population": 12707, "lat": 38.84670819999999, "lon": -91.94795859999999}, "dr4dfwjfrwv2": {"city": "GloucesterCity_NJ", "population": 11503, "lat": 39.8917799, "lon": -75.1162863}, "dpwwg2gzwvjx": {"city": "NewHamburg_ON", "population": 11953, "lat": 43.37945879999999, "lon": -80.71110580000001}, "f25vc2dg13e3": {"city": "Joliette_QC", "population": 42883, "lat": 46.014012, "lon": -73.41779609999999}, "dnk52bvyzyb9": {"city": "Loudon_TN", "population": 4921, "lat": 35.7328541, "lon": -84.3338112}, "dn6m31wdbk2h": {"city": "OakHill_TN", "population": 5389, "lat": 36.0878369, "lon": -86.7830548}, "dn6turkxx8fk": {"city": "Lebanon_TN", "population": 24648, "lat": 36.2081098, "lon": -86.2911024}, "dp3tbxv117k9": {"city": "LaGrangePark_IL", "population": 12404, "lat": 41.8347535, "lon": -87.86172599999999}, "drt99db4ufqu": {"city": "Lynn_MA", "population": 86957, "lat": 42.46676300000001, "lon": -70.9494938}, "dr5k5nrrnn3d": {"city": "Manasquan_NJ", "population": 6251, "lat": 40.1136928, "lon": -74.0376355}, "dr0yfyf5xyc3": {"city": "Lewistown_PA", "population": 8528, "lat": 40.5992395, "lon": -77.571382}, "dp97uxskk5s3": {"city": "Franklin_WI", "population": 35500, "lat": 42.888627, "lon": -88.03841949999999}, "9yk5mg9ymphr": {"city": "Muskogee_OK", "population": 40099, "lat": 35.7478769, "lon": -95.3696909}, "9vffddfxrg9q": {"city": "HaltomCity_TX", "population": 40181, "lat": 32.7995738, "lon": -97.26918169999999}, "dqcm3by6cmsb": {"city": "SeatPleasant_MD", "population": 4829, "lat": 38.8962231, "lon": -76.9066399}, "f2h62cksvrm6": {"city": "Granby_QC", "population": 60281, "lat": 45.40322889999999, "lon": -72.7340662}, "9qhc8eeu4rt1": {"city": "Yucaipa_CA", "population": 49750, "lat": 34.033625, "lon": -117.0430865}, "dn0mu91rymyb": {"city": "HollySprings_MS", "population": 7994, "lat": 34.76759670000001, "lon": -89.44868939999999}, "djgyq1jucw6s": {"city": "Fayetteville_GA", "population": 15136, "lat": 33.4487257, "lon": -84.4549262}, "dhwce8v5nkz2": {"city": "CutlerBay_FL", "population": 29070, "lat": 25.5808323, "lon": -80.34685929999999}, "9mupvz5q0qv0": {"city": "SantaAna_CA", "population": 339130, "lat": 33.7455731, "lon": -117.8678338}, "9yzu6u7nf0t6": {"city": "BellefontaineNeighbors_MO", "population": 10241, "lat": 38.7403281, "lon": -90.2265001}, "dpcmm03yvksz": {"city": "GreenBay_WI", "population": 101025, "lat": 44.51915899999999, "lon": -88.019826}, "dp3ffsy7bx7k": {"city": "Lowell_IN", "population": 8405, "lat": 41.2914243, "lon": -87.4205903}, "cbq1zcry43c6": {"city": "Cloquet_MN", "population": 11387, "lat": 46.7217735, "lon": -92.46118249999999}, "9yszkbmj2g17": {"city": "Nevada_MO", "population": 8327, "lat": 37.83920519999999, "lon": -94.3546719}, "dp3r16w2y0mj": {"city": "Streamwood_IL", "population": 37119, "lat": 42.0255827, "lon": -88.17840849999999}, "drkhr1z92cj9": {"city": "Meriden_CT", "population": 59186, "lat": 41.5381535, "lon": -72.80704349999999}, "9vghsdzhwmd7": {"city": "Frisco_TX", "population": 96676, "lat": 33.1506744, "lon": -96.82361159999999}, "9zee7wqq595b": {"city": "LeMars_IA", "population": 9127, "lat": 42.79415669999999, "lon": -96.1655778}, "dngvyx8wnc2u": {"city": "ColdSpring_KY", "population": 5809, "lat": 39.0217283, "lon": -84.4399406}, "9td474pe0rnd": {"city": "Douglas_AZ", "population": 17515, "lat": 31.3445471, "lon": -109.5453447}, "dp3w62vmbzfd": {"city": "OakPark_IL", "population": 49557, "lat": 41.8850317, "lon": -87.7845025}, "9v75dnt54f4c": {"city": "Giddings_TX", "population": 5423, "lat": 30.1827159, "lon": -96.93637100000001}, "dr4dg5xhvchp": {"city": "MountEphraim_NJ", "population": 4392, "lat": 39.8784465, "lon": -75.0926738}, "dp93kbt7906x": {"city": "Lindenhurst_IL", "population": 14695, "lat": 42.4105765, "lon": -88.02619109999999}, "dnp59cs76d14": {"city": "Hartsville_SC", "population": 7465, "lat": 34.3740431, "lon": -80.07340049999999}, "dnjwzd6guzsc": {"city": "Spartanburg_SC", "population": 39584, "lat": 34.9495672, "lon": -81.9320482}, "cbug1gffj8fq": {"city": "Kenora_ON", "population": 11306, "lat": 49.7670416, "lon": -94.4893924}, "djyehqhq803e": {"city": "Walterboro_SC", "population": 5780, "lat": 32.9051704, "lon": -80.6667688}, "drt3jcgkpn7x": {"city": "Cambridge_MA", "population": 105596, "lat": 42.3736158, "lon": -71.10973349999999}, "9wq0pdvf1h7k": {"city": "Tucumcari_NM", "population": 5268, "lat": 35.171723, "lon": -103.7249662}, "dhvk940evtb4": {"city": "Palmetto_FL", "population": 14284, "lat": 27.5214269, "lon": -82.57231929999999}, "9zxrgc2c6vfk": {"city": "Viroqua_WI", "population": 4435, "lat": 43.5569174, "lon": -90.88874129999999}, "dpn04rq7hd4m": {"city": "Marietta_OH", "population": 14307, "lat": 39.41535200000001, "lon": -81.45484359999999}, "dhwghht7pe6u": {"city": "HialeahGardens_FL", "population": 19631, "lat": 25.8650961, "lon": -80.3244957}, "9v935efrt2n2": {"city": "Brady_TX", "population": 5324, "lat": 31.1351682, "lon": -99.3350552}, "9rbme0er6jnw": {"city": "Corvallis_OR", "population": 51110, "lat": 44.5645659, "lon": -123.2620435}, "drgpjkkn7khe": {"city": "Malone_NY", "population": 5793, "lat": 44.8486596, "lon": -74.29489830000001}, "9q8ymhguj660": {"city": "DalyCity_CA", "population": 101514, "lat": 37.6879241, "lon": -122.4702079}, "9q5f7y6jc60z": {"city": "Burbank_CA", "population": 102968, "lat": 34.1808392, "lon": -118.3089661}, "9vy2zpu1u7x4": {"city": "WestMonroe_LA", "population": 12899, "lat": 32.5184775, "lon": -92.14763529999999}, "dj2uzedcy562": {"city": "Gautier_MS", "population": 16306, "lat": 30.385755, "lon": -88.6116854}, "dpp1kw3fsx44": {"city": "Morgantown_WV", "population": 29642, "lat": 39.629526, "lon": -79.95589679999999}, "87z9pyg1fnr6": {"city": "Honolulu_HI", "population": 374676, "lat": 21.3069444, "lon": -157.8583333}, "9mu9xtvyhe04": {"city": "ChulaVista_CA", "population": 219318, "lat": 32.6400541, "lon": -117.0841955}, "9xwg8hvg2nqf": {"city": "Chadron_NE", "population": 5429, "lat": 42.8294187, "lon": -102.9999069}, "dpu04gvp1tvg": {"city": "Midland_MI", "population": 40917, "lat": 43.6155825, "lon": -84.2472116}, "dn00h77w8nub": {"city": "Grenada_MS", "population": 14664, "lat": 33.7690049, "lon": -89.8084192}, "drkvu1ymbcpv": {"city": "Danielson_CT", "population": 4310, "lat": 41.8025986, "lon": -71.8859054}, "dr4uf0m0fwqp": {"city": "Morrisville_PA", "population": 9594, "lat": 40.2114977, "lon": -74.7879399}, "dnt8ydcfm2fy": {"city": "Abingdon_VA", "population": 8009, "lat": 36.70983349999999, "lon": -81.9773482}, "9r8qcfytb8ny": {"city": "Sutherlin_OR", "population": 7108, "lat": 43.3901177, "lon": -123.3125763}, "dn0prehq9hgn": {"city": "Collierville_TN", "population": 39211, "lat": 35.042036, "lon": -89.6645266}, "9t9ffsbwf2vt": {"city": "Bisbee_AZ", "population": 5991, "lat": 31.4481547, "lon": -109.9284084}, "dn5cuxyzeccz": {"city": "Woodstock_GA", "population": 23141, "lat": 34.1014873, "lon": -84.5193754}, "dnbcbzqwr1hg": {"city": "MountVernon_IL", "population": 16298, "lat": 38.3172714, "lon": -88.9031201}, "dj2hhzrmg121": {"city": "Slidell_LA", "population": 27183, "lat": 30.2751945, "lon": -89.78117449999999}, "c2762h7jn6q0": {"city": "Othello_WA", "population": 6577, "lat": 46.8259742, "lon": -119.1752913}, "dr4n7xuw6pnp": {"city": "Kutztown_PA", "population": 5074, "lat": 40.5173165, "lon": -75.7774177}, "dprxkzw8g44b": {"city": "Jamestown_NY", "population": 29463, "lat": 42.0970023, "lon": -79.23532589999999}, "9vqee25gu52d": {"city": "Broussard_LA", "population": 7767, "lat": 30.147146, "lon": -91.9612305}, "dnrhk4n1tepk": {"city": "Archdale_NC", "population": 9332, "lat": 35.914581, "lon": -79.9719831}, "9qxdmjvecu8h": {"city": "ColoradoCity_AZ", "population": 4750, "lat": 36.9902621, "lon": -112.9757702}, "9x26cqj6m8ud": {"city": "PlainCity_UT", "population": 5288, "lat": 41.2979981, "lon": -112.0860538}, "9qcdw05gkr4k": {"city": "ElkGrove_CA", "population": 133003, "lat": 38.4087993, "lon": -121.3716178}, "dppvkj6b2c64": {"city": "Johnstown_PA", "population": 21641, "lat": 40.32674069999999, "lon": -78.9219698}, "dr38j4yecvbd": {"city": "MountCarmel_PA", "population": 5888, "lat": 40.7970312, "lon": -76.41189609999999}, "dr73k3c0qgvd": {"city": "OldTappan_NJ", "population": 6029, "lat": 41.010653, "lon": -73.99124929999999}, "dr997ntjbzz5": {"city": "Ithaca_NY", "population": 29763, "lat": 42.4439614, "lon": -76.5018807}, "cbqnq72gj9em": {"city": "Virginia_MN", "population": 8480, "lat": 47.5232596, "lon": -92.53657129999999}, "dr8h2m2ghh4n": {"city": "Williamsville_NY", "population": 5129, "lat": 42.963947, "lon": -78.73780909999999}, "9v6m61p5d025": {"city": "LagoVista_TX", "population": 6293, "lat": 30.4601975, "lon": -97.98834769999999}, "9zk334vvgkqq": {"city": "RedOak_IA", "population": 5683, "lat": 41.0170937, "lon": -95.2214477}, "dngbmj462wy0": {"city": "Lexington_KY", "population": 282114, "lat": 38.0405837, "lon": -84.5037164}, "dr7kwh7tjd67": {"city": "WappingersFalls_NY", "population": 5659, "lat": 41.5964825, "lon": -73.91096999999999}, "9vgjtde9x5cx": {"city": "Celina_TX", "population": 5557, "lat": 33.3245586, "lon": -96.7844417}, "dn2xjqydt28t": {"city": "UnionCity_TN", "population": 10569, "lat": 36.4242303, "lon": -89.0570096}, "cbjb98ts9354": {"city": "NorthOaks_MN", "population": 4689, "lat": 45.0914155, "lon": -93.09053349999999}, "9qh3j0gxjsm8": {"city": "Norco_CA", "population": 26659, "lat": 33.9311257, "lon": -117.548661}, "dp932nshj41x": {"city": "SpringGrove_IL", "population": 5769, "lat": 42.4436308, "lon": -88.23647749999999}, "dp249sw8zxf8": {"city": "Kewanee_IL", "population": 12302, "lat": 41.2455927, "lon": -89.9248303}, "dr8vhxxq4rr3": {"city": "EastRochester_NY", "population": 6269, "lat": 43.10867409999999, "lon": -77.4874959}, "9vrf76kpfwqr": {"city": "Harahan_LA", "population": 9306, "lat": 29.9404826, "lon": -90.2031313}, "9vqyxm41ts1x": {"city": "NewRoads_LA", "population": 4746, "lat": 30.7015741, "lon": -91.4362242}, "9qbb47me0m4k": {"city": "Fairfax_CA", "population": 7066, "lat": 37.9871454, "lon": -122.5888686}, "9x23juq09wy7": {"city": "Farmington_UT", "population": 17217, "lat": 40.9804999, "lon": -111.8874392}, "f2swh6dhmy0j": {"city": "Dolbeau-Mistassini_QC", "population": 12195, "lat": 48.881683, "lon": -72.2321139}, "dn21t5cecv82": {"city": "Atoka_TN", "population": 7334, "lat": 35.4411945, "lon": -89.77813789999999}, "dr5pdbymw6nk": {"city": "NewProvidence_NJ", "population": 11905, "lat": 40.6984348, "lon": -74.4015405}, "9xr9vr1mnzkz": {"city": "Ogallala_NE", "population": 4429, "lat": 41.12821780000001, "lon": -101.7203993}, "dpnvp396kznd": {"city": "Canonsburg_PA", "population": 8717, "lat": 40.2625702, "lon": -80.18727969999999}, "dj6t853te7dx": {"city": "Niceville_FL", "population": 12313, "lat": 30.5168639, "lon": -86.48217199999999}, "dppnn4pwntgv": {"city": "Wilkinsburg_PA", "population": 17522, "lat": 40.4417355, "lon": -79.8819942}, "djcszmdj6758": {"city": "Tuscaloosa_AL", "population": 90221, "lat": 33.2098407, "lon": -87.56917349999999}, "9yurxuref630": {"city": "Leavenworth_KS", "population": 34729, "lat": 39.3111112, "lon": -94.9224637}, "9qbv9s4hnkt4": {"city": "Clearlake_CA", "population": 15040, "lat": 38.9582307, "lon": -122.6263728}, "dnw5ytsh5x1h": {"city": "Bluefield_VA", "population": 5143, "lat": 37.252617, "lon": -81.2712105}, "dp3gwv63wbmm": {"city": "Winfield_IN", "population": 4484, "lat": 41.4255832, "lon": -87.2390447}, "9v1zqsrpujgg": {"city": "SanAntonio_TX", "population": 1351305, "lat": 29.4241219, "lon": -98.49362819999999}, "dr5ze2mv7gvx": {"city": "Babylon_NY", "population": 12760, "lat": 40.6956552, "lon": -73.3256753}, "dr1heq27znp1": {"city": "Carlisle_PA", "population": 18379, "lat": 40.2010241, "lon": -77.20027449999999}, "dhwuwk2h1pjf": {"city": "Plantation_FL", "population": 83628, "lat": 26.1275862, "lon": -80.23310359999999}, "drkjpb5w1u80": {"city": "NewBritain_CT", "population": 70486, "lat": 41.6612104, "lon": -72.7795419}, "9wfwvb9uyyq5": {"city": "Fruita_CO", "population": 7418, "lat": 39.1588696, "lon": -108.7289882}, "9pxwtqek1met": {"city": "CoosBay_OR", "population": 15665, "lat": 43.3665007, "lon": -124.2178903}, "dpkzsb646cxm": {"city": "Amherstburg_ON", "population": 13330, "lat": 42.1013779, "lon": -83.1086977}, "dpz6vwb5bv4q": {"city": "BradfordWestGwillimbury_ON", "population": 22378, "lat": 44.114899, "lon": -79.5629529}, "c32vkt1bvzdh": {"city": "Quesnel_BC", "population": 13566, "lat": 52.9817372, "lon": -122.4949058}, "dr45t6fw9z77": {"city": "Downingtown_PA", "population": 7937, "lat": 40.0064958, "lon": -75.7032742}, "9x22y2chtspk": {"city": "Centerville_UT", "population": 15720, "lat": 40.9180005, "lon": -111.8721601}, "dq9c8h6r634w": {"city": "Norfolk_VA", "population": 234220, "lat": 36.8507689, "lon": -76.28587259999999}, "c26vpmztnp4h": {"city": "Ephrata_WA", "population": 7344, "lat": 47.3176385, "lon": -119.5536491}, "9vk2cmnfgpjn": {"city": "Pasadena_TX", "population": 146439, "lat": 29.6910625, "lon": -95.2091006}, "9v1s359jnr7c": {"city": "Pearsall_TX", "population": 7663, "lat": 28.8921939, "lon": -99.095033}, "9zu00syrr40h": {"city": "Worthington_MN", "population": 11036, "lat": 43.6210985, "lon": -95.59414360000001}, "dqbwxs9u5zh0": {"city": "Purcellville_VA", "population": 5137, "lat": 39.1367717, "lon": -77.7147153}, "9qhc40ev2tcu": {"city": "Beaumont_CA", "population": 32663, "lat": 33.9294606, "lon": -116.977248}, "9q923dp1bbfp": {"city": "PacificGrove_CA", "population": 14601, "lat": 36.6177374, "lon": -121.9166215}, "dppqcukbqd09": {"city": "LowerBurrell_PA", "population": 12087, "lat": 40.5849232, "lon": -79.7209802}, "dr0g0y2vm4t4": {"city": "Chambersburg_PA", "population": 18302, "lat": 39.9375911, "lon": -77.6611022}, "c23ng70ntc9c": {"city": "Bellevue_WA", "population": 123771, "lat": 47.610377, "lon": -122.2006786}, "drsf1ws9cgsy": {"city": "Gardner_MA", "population": 20682, "lat": 42.5750883, "lon": -71.998133}, "f0q2tv5fcecf": {"city": "GreaterSudbury_ON", "population": 106840, "lat": 46.522099, "lon": -80.9530353}, "dp3sum01ktg5": {"city": "Robbins_IL", "population": 6331, "lat": 41.6439227, "lon": -87.7036602}, "dpns554pw4w8": {"city": "MartinsFerry_OH", "population": 6654, "lat": 40.0959055, "lon": -80.724526}, "dp3gegwx2su8": {"city": "CrownPoint_IN", "population": 24376, "lat": 41.4169806, "lon": -87.3653135}, "9mzvy4fupy7w": {"city": "Buckeye_AZ", "population": 47261, "lat": 33.3703197, "lon": -112.5837766}, "dp54268sete1": {"city": "Greenfield_IN", "population": 18787, "lat": 39.785043, "lon": -85.7694226}, "djn5h3x759cn": {"city": "AltamonteSprings_FL", "population": 39947, "lat": 28.6611089, "lon": -81.3656242}, "9zvzsdjh3mwd": {"city": "Woodbury_MN", "population": 56128, "lat": 44.9238552, "lon": -92.9593797}, "dp8gsve5fvt6": {"city": "Whitewater_WI", "population": 14291, "lat": 42.83362049999999, "lon": -88.7323272}, "dpt1c8ktqg1s": {"city": "St.ClairShores_MI", "population": 60364, "lat": 42.4974085, "lon": -82.89636039999999}, "dp3w2htj9zrw": {"city": "StonePark_IL", "population": 4860, "lat": 41.90558619999999, "lon": -87.88367319999999}, "dr72hr7f7j1v": {"city": "CliffsidePark_NJ", "population": 22863, "lat": 40.8214894, "lon": -73.9876388}, "9x11q2y570yq": {"city": "Price_UT", "population": 8039, "lat": 39.5994095, "lon": -110.8107148}, "dp3nq96h81hv": {"city": "Geneva_IL", "population": 24302, "lat": 41.8875281, "lon": -88.3053525}, "9yvsntcmb43y": {"city": "Sedalia_MO", "population": 20990, "lat": 38.7044609, "lon": -93.2282613}, "dpj2uy0cx6v8": {"city": "Logan_OH", "population": 7436, "lat": 39.5400672, "lon": -82.4070986}, "cbj3p4jnh28x": {"city": "Rogers_MN", "population": 7536, "lat": 45.1878015, "lon": -93.5525206}, "c24xt0ur7emy": {"city": "Sunnyside_WA", "population": 14949, "lat": 46.3237423, "lon": -120.0086538}, "dj6mx9fth66g": {"city": "Valparaiso_FL", "population": 6030, "lat": 30.5085309, "lon": -86.50272819999999}, "9qhburvny0zg": {"city": "Banning_CA", "population": 28917, "lat": 33.9255713, "lon": -116.8764103}, "9zz457m0z0mh": {"city": "Holmen_WI", "population": 8487, "lat": 43.96329619999999, "lon": -91.25625389999999}, "c24xpedprubf": {"city": "Grandview_WA", "population": 9392, "lat": 46.2509653, "lon": -119.9017049}, "cbj8e95ure7h": {"city": "BrooklynPark_MN", "population": 71308, "lat": 45.0941315, "lon": -93.3563405}, "dr44tjukrc8c": {"city": "KennettSquare_PA", "population": 5270, "lat": 39.8467767, "lon": -75.7116032}, "djfnqrbttpdv": {"city": "Fairfield_AL", "population": 11316, "lat": 33.4859402, "lon": -86.91193659999999}, "9prb2rt8sqbg": {"city": "Arcata_CA", "population": 17044, "lat": 40.8665166, "lon": -124.0828396}, "dr72g4vg40mr": {"city": "RiverEdge_NJ", "population": 10674, "lat": 40.92870980000001, "lon": -74.0398622}, "dr5np89s0rbu": {"city": "Keyport_NJ", "population": 7476, "lat": 40.4331631, "lon": -74.1995883}, "9wggqc53eqw0": {"city": "Gunnison_CO", "population": 5461, "lat": 38.5458246, "lon": -106.9253207}, "9ys26tygggx1": {"city": "Vinita_OK", "population": 6059, "lat": 36.6386937, "lon": -95.15413389999999}, "dpsr18kbsrv6": {"city": "Saginaw_MI", "population": 55620, "lat": 43.4194699, "lon": -83.9508068}, "9w1r1pbwstez": {"city": "Winslow_AZ", "population": 9867, "lat": 35.0241873, "lon": -110.6973571}, "9xynhu1jte9c": {"city": "BelleFourche_SD", "population": 4979, "lat": 44.6713733, "lon": -103.852148}, "9q9hssy0qf4j": {"city": "LosAltosHills_CA", "population": 8592, "lat": 37.3796627, "lon": -122.1374637}, "dr78j1q7mwvs": {"city": "OldWestbury_NY", "population": 5283, "lat": 40.7887113, "lon": -73.5995717}, "dhwztmwk58yy": {"city": "Wellington_FL", "population": 54530, "lat": 26.6617635, "lon": -80.2683571}, "9xjtcqc4u7uj": {"city": "Greeley_CO", "population": 91492, "lat": 40.4233142, "lon": -104.7091322}, "9yhuz80z2f5v": {"city": "Mena_AR", "population": 5630, "lat": 34.5862171, "lon": -94.23965539999999}, "djjujhqx939y": {"city": "Eustis_FL", "population": 19129, "lat": 28.8527675, "lon": -81.6853534}, "dr78kqv838bg": {"city": "GlenCove_NY", "population": 26895, "lat": 40.8623217, "lon": -73.6337389}, "9q9z0m3j4pjm": {"city": "Lathrop_CA", "population": 17197, "lat": 37.8227046, "lon": -121.27661}, "c817u0ksyrcg": {"city": "Livingston_MT", "population": 7500, "lat": 45.6614105, "lon": -110.5599556}, "9zhrv2g4yz1w": {"city": "Clarinda_IA", "population": 5493, "lat": 40.7419352, "lon": -95.038313}, "djgy9m9ry59q": {"city": "Palmetto_GA", "population": 5053, "lat": 33.5178907, "lon": -84.66965479999999}, "9q9q68jxd4hc": {"city": "Pleasanton_CA", "population": 66828, "lat": 37.6624312, "lon": -121.8746789}, "dr4mmftch4ty": {"city": "Souderton_PA", "population": 6553, "lat": 40.3117706, "lon": -75.32517589999999}, "dr648pxxu3xu": {"city": "Larksville_PA", "population": 4435, "lat": 41.263241, "lon": -75.9270074}, "dpeh6t4rsyub": {"city": "GrandRapids_MI", "population": 193396, "lat": 42.9633599, "lon": -85.6680863}, "dr72ujj0t7p4": {"city": "Dumont_NJ", "population": 16968, "lat": 40.9406541, "lon": -73.9968051}, "9zyjw308htkm": {"city": "RedWing_MN", "population": 15687, "lat": 44.5660691, "lon": -92.5369563}, "9vy141rxq38b": {"city": "Grambling_LA", "population": 4516, "lat": 32.5276503, "lon": -92.7140402}, "dn5cd9bbu5tz": {"city": "Kennesaw_GA", "population": 31628, "lat": 34.0234337, "lon": -84.6154897}, "cbj94gvxcjft": {"city": "Anoka_MN", "population": 17289, "lat": 45.1977428, "lon": -93.3871758}, "dnh2db1q7n75": {"city": "Loganville_GA", "population": 10562, "lat": 33.8389977, "lon": -83.90073819999999}, "9vg1fb1d80fb": {"city": "Duncanville_TX", "population": 36109, "lat": 32.6518004, "lon": -96.9083366}, "drt3r0hr18m4": {"city": "Everett_MA", "population": 37353, "lat": 42.40843, "lon": -71.0536625}, "dr72ku8tfvgm": {"city": "FortLee_NJ", "population": 36275, "lat": 40.8509333, "lon": -73.9701381}, "drt3nh6vtssx": {"city": "Somerville_MA", "population": 75662, "lat": 42.3875968, "lon": -71.0994968}, "c2kz6wy3q811": {"city": "PostFalls_ID", "population": 26460, "lat": 47.7179578, "lon": -116.9515856}, "dnpmzf2vtbxk": {"city": "Laurinburg_NC", "population": 15548, "lat": 34.7740494, "lon": -79.46282479999999}, "c23k8128b127": {"city": "Enumclaw_WA", "population": 10684, "lat": 47.2042681, "lon": -121.9915003}, "9yzu8tm5dd1s": {"city": "Florissant_MO", "population": 50561, "lat": 38.789217, "lon": -90.322614}, "dr5n25w4fzbm": {"city": "Franklin_NJ", "population": 5077, "lat": 40.4933734, "lon": -74.5228916}, "9ppwywxmtf92": {"city": "Fortuna_CA", "population": 11329, "lat": 40.5981867, "lon": -124.1572756}, "dp3nn6sdpfsp": {"city": "Batavia_IL", "population": 27502, "lat": 41.8500284, "lon": -88.3125738}, "djn7054ncdu9": {"city": "Oviedo_FL", "population": 32606, "lat": 28.669997, "lon": -81.20812029999999}, "dphvm8pub15b": {"city": "Delaware_OH", "population": 33719, "lat": 40.2986724, "lon": -83.067965}, "dp65fvun235y": {"city": "Valparaiso_IN", "population": 30429, "lat": 41.4730948, "lon": -87.0611412}, "9qxwuh6jkz22": {"city": "Enoch_UT", "population": 5085, "lat": 37.7733096, "lon": -113.0243929}, "djf6udn7s03c": {"city": "Clanton_AL", "population": 8836, "lat": 32.8387371, "lon": -86.6294262}, "dpx9dtnv13h7": {"city": "Dunkirk_NY", "population": 12085, "lat": 42.4795019, "lon": -79.3339324}, "dpme7dgh30gt": {"city": "Elyria_OH", "population": 54979, "lat": 41.3683798, "lon": -82.10764859999999}, "9vxetuz1k55p": {"city": "Brookhaven_MS", "population": 13296, "lat": 31.5790588, "lon": -90.4406506}, "9wvmhd1whp6r": {"city": "ManitouSprings_CO", "population": 5161, "lat": 38.8597127, "lon": -104.9171989}, "dr4vsfufr9e3": {"city": "Princeton_NJ", "population": 13391, "lat": 40.3572976, "lon": -74.6672226}, "9yuxgpjs2xde": {"city": "PlatteCity_MO", "population": 4806, "lat": 39.3702773, "lon": -94.78246089999999}, "dp94z1r1z3ke": {"city": "Burlington_WI", "population": 10930, "lat": 42.6780726, "lon": -88.27620259999999}, "dr4r40t9r0pe": {"city": "Allentown_PA", "population": 107250, "lat": 40.6084305, "lon": -75.4901833}, "dqcq7mbcb9jt": {"city": "Laurel_MD", "population": 22329, "lat": 39.0992752, "lon": -76.8483061}, "9wv9es1bq3g4": {"city": "Pueblo_CO", "population": 104951, "lat": 38.2544472, "lon": -104.6091409}, "dhwgz42fvkdf": {"city": "WestPark_FL", "population": 14432, "lat": 25.984536, "lon": -80.19893619999999}, "dpq59nw09jub": {"city": "WarrensvilleHeights_OH", "population": 13618, "lat": 41.4323067, "lon": -81.5102655}, "c0z8e4m9fnye": {"city": "Parksville_BC", "population": 24326, "lat": 49.3193375, "lon": -124.3136412}, "9xj6n2x8xnzh": {"city": "Aurora_CO", "population": 319057, "lat": 39.7294319, "lon": -104.8319195}, "dq27ccsgyc2m": {"city": "Zebulon_NC", "population": 4732, "lat": 35.8243208, "lon": -78.3147199}, "dr5rb99jd023": {"city": "Harrison_NJ", "population": 15201, "lat": 40.7464901, "lon": -74.1562551}, "f0k08tj13wvh": {"city": "SaultSte.Marie_ON", "population": 67646, "lat": 46.52185799999999, "lon": -84.3460896}, "dppjyynyr50j": {"city": "ForestHills_PA", "population": 6240, "lat": 40.4197911, "lon": -79.8500487}, "9x0q6xk5f435": {"city": "Herriman_UT", "population": 17689, "lat": 40.5141147, "lon": -112.0329938}, "9vc0de0e96cu": {"city": "Abilene_TX", "population": 116484, "lat": 32.4487364, "lon": -99.73314390000002}, "dpegex4whp25": {"city": "DeWitt_MI", "population": 4428, "lat": 42.842256, "lon": -84.56914870000001}, "dnnrnhcsen8y": {"city": "FortMill_SC", "population": 10032, "lat": 35.0073697, "lon": -80.94507589999999}, "djz4z2ywnue2": {"city": "MountPleasant_SC", "population": 65472, "lat": 32.8323225, "lon": -79.82842579999999}, "9qctpzvpu14j": {"city": "Lincoln_CA", "population": 43602, "lat": 38.891565, "lon": -121.2930079}, "dn4m3uzcc67x": {"city": "Madison_AL", "population": 38714, "lat": 34.6992579, "lon": -86.74833180000002}, "9qh1vmfueyr3": {"city": "Covina_CA", "population": 46944, "lat": 34.0900091, "lon": -117.8903397}, "dr0r7eu7ebv2": {"city": "Tyrone_PA", "population": 5197, "lat": 40.6706184, "lon": -78.23862439999999}, "9rb6x56vyub7": {"city": "Eugene_OR", "population": 150104, "lat": 44.0520691, "lon": -123.0867536}, "9v6kf0kdk3s1": {"city": "Lakeway_TX", "population": 11193, "lat": 30.3679788, "lon": -97.99167899999999}, "9qh1tcjnd99e": {"city": "Walnut_CA", "population": 30744, "lat": 34.0202894, "lon": -117.8653386}, "dn6b0mrhb4hq": {"city": "Winchester_TN", "population": 7862, "lat": 35.1859163, "lon": -86.11220709999999}, "dpke2kncwbuy": {"city": "BowlingGreen_OH", "population": 29542, "lat": 41.3747744, "lon": -83.6513229}, "djz576z6w8yb": {"city": "Hanahan_SC", "population": 16065, "lat": 32.9305786, "lon": -80.0031833}, "9y7v6k80duuf": {"city": "BrokenArrow_OK", "population": 92931, "lat": 36.1039326, "lon": -95.8775611}, "dnq5cbs493sq": {"city": "Sawmills_NC", "population": 4931, "lat": 35.8186145, "lon": -81.4800429}, "9vyhgm62rqyu": {"city": "ElDorado_AR", "population": 19905, "lat": 33.20763, "lon": -92.6662674}, "dps9p2bmthdg": {"city": "Livonia_MI", "population": 91220, "lat": 42.36837, "lon": -83.35270969999999}, "dpkhm7ccwr8s": {"city": "Wauseon_OH", "population": 7246, "lat": 41.5492182, "lon": -84.14161469999999}, "dj3snymmb9dm": {"city": "OrangeBeach_AL", "population": 6231, "lat": 30.2697033, "lon": -87.5867598}, "dp8z4rnxu5q6": {"city": "BeaverDam_WI", "population": 15133, "lat": 43.4577692, "lon": -88.837329}, "dr4sdcsb5gcc": {"city": "Hatboro_PA", "population": 7125, "lat": 40.1742757, "lon": -75.10683879999999}, "dpcx2e6yzwug": {"city": "Oconto_WI", "population": 4320, "lat": 44.8872124, "lon": -87.8645473}, "9vzbkzrtsfp6": {"city": "Ridgeland_MS", "population": 21509, "lat": 32.4284761, "lon": -90.1323087}, "9yvwx60h7w28": {"city": "Marshall_MO", "population": 12118, "lat": 39.1230777, "lon": -93.1968704}, "9x22w5dvvndt": {"city": "Bountiful_UT", "population": 44473, "lat": 40.8893895, "lon": -111.880771}, "9q6sf6kenyc5": {"city": "Avenal_CA", "population": 17147, "lat": 36.0041223, "lon": -120.1290272}, "9yzu30zmrxfr": {"city": "Normandy_MO", "population": 4902, "lat": 38.7208842, "lon": -90.2973358}, "9vhpw5d2vsnj": {"city": "Manvel_TX", "population": 6051, "lat": 29.4627365, "lon": -95.35799399999999}, "dr7hnxy7ub9f": {"city": "Montgomery_NY", "population": 4741, "lat": 41.5275938, "lon": -74.23681599999999}, "dn58p828enux": {"city": "Douglasville_GA", "population": 31035, "lat": 33.7514966, "lon": -84.7477136}, "9r16582ekbpu": {"city": "Chico_CA", "population": 83791, "lat": 39.7284944, "lon": -121.8374777}, "9v797vkmxjpq": {"city": "Sealy_TX", "population": 6275, "lat": 29.7807878, "lon": -96.1571833}, "dnfvts29uj00": {"city": "Seymour_IN", "population": 19223, "lat": 38.9592201, "lon": -85.8902547}, "dr788kz2f6vg": {"city": "PelhamManor_NY", "population": 5451, "lat": 40.8953773, "lon": -73.8070778}, "dng1s3h90pqs": {"city": "Hurstbourne_KY", "population": 4423, "lat": 38.2381263, "lon": -85.5882937}, "dp9nwbxuw6cn": {"city": "Slinger_WI", "population": 4657, "lat": 43.333613, "lon": -88.28620649999999}, "9wrfuthsjeeg": {"city": "Borger_TX", "population": 12677, "lat": 35.6678203, "lon": -101.3973876}, "dhwfuuyczjm3": {"city": "MiamiSprings_FL", "population": 12534, "lat": 25.8223198, "lon": -80.289495}, "c25ebfkg15f7": {"city": "Pendleton_OR", "population": 16380, "lat": 45.672075, "lon": -118.7885967}, "djfqyek20whx": {"city": "Leeds_AL", "population": 11312, "lat": 33.5481597, "lon": -86.54442879999999}, "9wstnv5g3ew6": {"city": "Alamosa_CO", "population": 8745, "lat": 37.4694491, "lon": -105.8700214}, "c2625z8949ru": {"city": "Wapato_WA", "population": 4543, "lat": 46.4476278, "lon": -120.4203382}, "dpq41b0y85j7": {"city": "CuyahogaFalls_OH", "population": 51090, "lat": 41.1339449, "lon": -81.48455849999999}, "dj2ucm7twpn8": {"city": "Biloxi_MS", "population": 45670, "lat": 30.3960318, "lon": -88.88530779999999}, "dr4ke59f6vyv": {"city": "Collegeville_PA", "population": 5058, "lat": 40.1856597, "lon": -75.451571}, "9vffbqjb0e9p": {"city": "Saginaw_TX", "population": 20295, "lat": 32.8601275, "lon": -97.3639068}, "tdpd672jw5g8": {"city": "Salem_IN", "population": 6502, "lat": 11.664325, "lon": 78.1460142}, "9vqshz0up7rq": {"city": "BreauxBridge_LA", "population": 8047, "lat": 30.2735323, "lon": -91.8992837}, "9ymn6004drgh": {"city": "Lowell_AR", "population": 7173, "lat": 36.2553543, "lon": -94.1307587}, "dhwfm6qqe16b": {"city": "CoralGables_FL", "population": 42781, "lat": 25.72149, "lon": -80.2683838}, "dr793qp2r9kn": {"city": "WhitePlains_NY", "population": 57342, "lat": 41.03398620000001, "lon": -73.7629097}, "dnzc08vtruqj": {"city": "Staunton_VA", "population": 23967, "lat": 38.149576, "lon": -79.0716958}, "dr7mjzk6k89s": {"city": "Poughkeepsie_NY", "population": 29654, "lat": 41.7003713, "lon": -73.9209701}, "dpwvrxsyd80v": {"city": "Brant_ON", "population": 11763, "lat": 43.152667, "lon": -80.17159099999999},